ID,address,info,z_address,bathrooms,bedrooms,finishedsqft,lastsolddate,lastsoldprice,latitude,longitude,neighborhood,totalrooms,usecode,yearbuilt,zestimate,zindexvalue,zipcode,zpid
2,Address: 1160 Mission Street #2007, San FranciscoSales price: 1300000Sales date: 02/17/2016Bedrooms: 2Square feet: 1043Lot size: 43557,1160 Mission St UNIT 2007,2,2,1043,02/17/2016,1300000,37.778705,-122.412635,South of Market,4,Condominium,2007,1167508,"975,700",94103,83152781
5,Address: 260 King Street #475, San FranciscoSales price: 750000Sales date: 02/17/2016Bedrooms: 1Square feet: 908Lot size: 213232,260 King St UNIT 475,1,1,903,02/17/2016,750000,37.777641,-122.393417,South of Market,3,Condominium,2004,823719,"975,700",94107,69819817
7,Address: 560 Missouri Street #B, San FranciscoSales price: 1495000Sales date: 02/17/2016Bedrooms: 3Square feet: 1425Lot size: 2496,560 Missouri St # B,4,3,1425,02/17/2016,1495000,37.759198,-122.396516,Potrero Hill,6,Condominium,2003,1708594,"1,277,600",94107,64972847
9,Address: 350 Missouri Street, San FranciscoSales price: 2700000Sales date: 02/17/2016Bedrooms: 3Square feet: 1984Lot size: 2469,350 Missouri St,3,3,2231,02/17/2016,2700000,37.761886,-122.396769,Potrero Hill,10,SingleFamily,1927,2411236,"1,277,600",94107,15149489
11,Address: 3658 Folsom Street, San FranciscoSales price: 1530000Sales date: 02/17/2016Bedrooms: 0Square feet: 924Lot size: 1750,3658 Folsom St,3,3,1300,02/17/2016,1530000,37.740795,-122.413453,Bernal Heights,4,SingleFamily,1900,1918539,"1,248,000",94110,15161978
12,Address: 156 Lowell Street, San FranciscoSales price: 460000Sales date: 02/17/2016Bedrooms: 2Square feet: 1250Lot size: 3000,156 Lowell St,1,2,1250,02/17/2016,460000,37.710226,-122.446027,Crocker Amazon,5,SingleFamily,1924,703392,"823,000",94112,15178981
13,Address: 735 Lakeview Avenue, San FranciscoSales price: 532000Sales date: 02/17/2016Bedrooms: 3Square feet: 1032Lot size: 2495,735 Lakeview Ave,1,3,1032,02/17/2016,532000,37.718024,-122.460332,Oceanview,6,SingleFamily,1939,741715,"762,700",94112,15192274
14,Address: 430 Capistrano Avenue, San FranciscoSales price: 1050000Sales date: 02/17/2016Bedrooms: 0Square feet: 1200Lot size: 3136,430 Capistrano Ave,1,2,1200,02/17/2016,1050000,37.725204,-122.439273,Mission Terrace,5,SingleFamily,1924,1023650,"992,600",94112,15141129
15,Address: 4135 23rd Street, San FranciscoSales price: 3500000Sales date: 02/17/2016Bedrooms: 4Square feet: 2661Lot size: 2944,4135 23rd St,3.5,4,2700,02/17/2016,3500000,37.752602,-122.435011,Noe Valley,9,SingleFamily,1912,3604950,"1,782,000",94114,15131647
16,Address: 440 Steiner Street, San FranciscoSales price: 1500000Sales date: 02/17/2016Bedrooms: 3Square feet: 2016Lot size: 2885,440 Steiner St,2,3,2016,02/17/2016,1500000,37.773237,-122.432302,Hayes Valley,7,Condominium,1890,1547314,"1,224,800",94117,118608077
18,Address: 414 Somerset Street, San FranciscoSales price: 848000Sales date: 02/17/2016Bedrooms: 5Square feet: 1798Lot size: 2273,414 Somerset St,1,3,1798,02/17/2016,848000,37.726252,-122.407649,Portola,8,SingleFamily,1953,933506,"888,400",94134,15170161
19,Address: 300 Berry Street #813, San FranciscoSales price: 1000000Sales date: 02/17/2016Bedrooms: 2Square feet: 761Lot size: 41861,300 Berry St UNIT 813,1,1,761,02/17/2016,1000000,37.773929,-122.39624,South of Market,4,Condominium,2008,931039,"975,700",94158,96023519
24,Address: 370 Church Street #F, San FranciscoSales price: 888000Sales date: 02/16/2016Bedrooms: 1Square feet: 780Lot size: 18656,370 Church St APT F,1,1,780,08/12/2015,863000,37.765062,-122.429077,Eureka Valley - Dolores Heights - Castro,4,Condominium,1981,847894,"1,744,100",94114,15143549
25,Address: 10 22nd Avenue, San FranciscoSales price: 4888000Sales date: 02/16/2016Bedrooms: 5Square feet: 4296Lot size: 13812,10 22nd Ave,5,5,5786,02/16/2016,4888000,37.787088,-122.481741,Lake,12,SingleFamily,1926,7159444,"2,244,500",94121,15089099
26,Address: 1847 10th Avenue, San FranciscoSales price: 1000000Sales date: 02/16/2016Bedrooms: 1Square feet: 1688Lot size: 3000,1847 10th Ave,2,2,1688,02/16/2016,1000000,37.753756,-122.466995,Inner Sunset,6,SingleFamily,1927,1106369,"1,357,900",94122,15111864
27,Address: 442 Mangels Avenue, San FranciscoSales price: 210000Sales date: 02/16/2016Bedrooms: 0Square feet: 1619Lot size: 2495,442 Mangels Ave,3,4,1619,02/16/2016,210000,37.733307,-122.447605,Sunnyside,7,SingleFamily,1966,1483668,"1,038,200",94127,15137861
33,Address: 650 Turk Street #706, San FranciscoSales price: 525000Sales date: 02/12/2016Bedrooms: 1Square feet: 398Lot size: 15582,650 Turk St UNIT 706,1,0,398,02/12/2016,525000,37.782379,-122.420166,Van Ness - Civic Center,4,Condominium,2008,565702,"855,500",94102,82785510
34,Address: 66 Rondel Place, San FranciscoSales price: 2300000Sales date: 02/12/2016Bedrooms: 4Square feet: 2615Lot size: 1503,66 Rondel Pl,4.5,4,2615,02/12/2016,2300000,37.763849,-122.421259,Mission,9,SingleFamily,1906,1613306,"1,185,400",94103,15143880
35,Address: 1610 Sacramento Street #5, San FranciscoSales price: 1450000Sales date: 02/12/2016Bedrooms: 1Square feet: 1167Lot size: 4788,1610 Sacramento St APT 5,2,2,1252,02/12/2016,1450000,37.791904,-122.419806,Nob Hill,4,Condominium,2002,1386684,"1,459,200",94109,61288302
36,Address: 1536 Pacific Avenue #1, San FranciscoSales price: 2500000Sales date: 02/12/2016Bedrooms: 2Square feet: 1407Lot size: 5300,1536 Pacific Ave # 1,2,3,1444,02/12/2016,2500000,37.795383,-122.420623,Nob Hill,6,Condominium,2009,2125825,"1,459,200",94109,96039237
37,Address: 541 Prentiss Street, San FranciscoSales price: 171000Sales date: 02/12/2016Bedrooms: 0Square feet: 938Lot size: 1751,541 Prentiss St,2,3,1200,02/12/2016,171000,37.73639,-122.412103,Bernal Heights,5,SingleFamily,1953,1261487,"1,248,000",94110,15163972
38,Address: 31 Hartford Street, San FranciscoSales price: 871500Sales date: 02/12/2016Bedrooms: 0Square feet: 1265Lot size: 3271,31 Hartford St,1,2,1265,02/12/2016,871500,37.76207,-122.43369,Eureka Valley - Dolores Heights - Castro,5,Condominium,1902,1262136,"1,744,100",94114,15144391
40,Address: 1600 Webster Street #106, San FranciscoSales price: 900000Sales date: 02/12/2016Bedrooms: 1Square feet: 859Lot size: 18978,1600 Webster St APT 106,1,1,859,02/12/2016,900000,37.78568,-122.430955,Lower Pacific Heights,4,Condominium,2005,820965,"1,178,700",94115,64971357
41,Address: 233 18th Avenue, San FranciscoSales price: 1020000Sales date: 02/12/2016Bedrooms: 2Square feet: 1308Lot size: 2989,233 18th Ave,1,2,1308,02/12/2016,1020000,37.783586,-122.477794,Central Richmond,5,Condominium,1914,1077432,"1,485,300",94121,79845847
42,Address: 248 17th Avenue, San FranciscoSales price: 1410500Sales date: 02/12/2016Bedrooms: 2Square feet: 1429Lot size: 3000,248 17th Ave,1.5,2,1429,02/12/2016,1410500,37.783401,-122.476049,Central Richmond,6,Condominium,1922,1170744,"1,485,300",94121,79841409
43,Address: 1374 45th Avenue, San FranciscoSales price: 951000Sales date: 02/12/2016Bedrooms: 0Square feet: 1771Lot size: 4077,1374 45th Ave,1,3,1771,02/12/2016,951000,37.761002,-122.504565,Outer Sunset,8,SingleFamily,1905,956441,"1,031,800",94122,15103994
44,Address: 1087 Palou Avenue, San FranciscoSales price: 430000Sales date: 02/12/2016Bedrooms: 0Square feet: 1452Lot size: 1873,1087 Palou Ave,2,3,1452,02/12/2016,430000,37.728354,-122.381454,Bayview,8,SingleFamily,1900,536665,"731,900",94124,15153617
45,Address: 1486 Underwood Avenue, San FranciscoSales price: 680000Sales date: 02/12/2016Bedrooms: 0Square feet: 1115Lot size: 2500,1486 Underwood Ave,2,3,1115,02/12/2016,680000,37.728777,-122.389531,Bayview,6,SingleFamily,1931,631581,"731,900",94124,15154174
46,Address: 350 Lansdale Avenue, San FranciscoSales price: 1440000Sales date: 02/12/2016Bedrooms: 0Square feet: 2378Lot size: 9861,350 Lansdale Ave,3,3,2378,02/12/2016,1440000,37.735851,-122.458653,Westwood Highlands,8,SingleFamily,1940,1709182,"1,424,100",94127,15135745
47,Address: 120 Ulloa Street, San FranciscoSales price: 1700000Sales date: 02/12/2016Bedrooms: 3Square feet: 2063Lot size: 3101,120 Ulloa St,2.5,2,2063,02/12/2016,1700000,37.744348,-122.455305,Forest Hill Extension,10,SingleFamily,1937,1755644,"1,669,300",94127,15133658
48,Address: 159 Middlefield Drive, San FranciscoSales price: 234000Sales date: 02/12/2016Bedrooms: 3Square feet: 1970Lot size: 3301,159 Middlefield Dr,3,3,2200,02/12/2016,234000,37.731436,-122.486486,Lakeshore,6,SingleFamily,1950,1455842,"1,264,800",94132,15197928
49,Address: 8 Dunsmuir Street, San FranciscoSales price: 700000Sales date: 02/12/2016Bedrooms: 2Square feet: 1250Lot size: 2548,8 Dunsmuir St,1,2,1250,02/12/2016,700000,37.730809,-122.414514,Portola,5,SingleFamily,1936,964978,"888,400",94134,15165553
50,Address: 22 West View Avenue, San FranciscoSales price: 744000Sales date: 02/12/2016Bedrooms: 2Square feet: 970Lot size: 2495,22 W View Ave,1,2,970,02/12/2016,744000,37.730916,-122.418729,Portola,5,SingleFamily,1943,736105,"888,400",94134,15166504
57,Address: 4160 17th Street, San FranciscoSales price: 1100000Sales date: 02/11/2016Bedrooms: 1Square feet: 911Lot size: 2628,4160 17th St,2,2,911,02/11/2016,1100000,37.762498,-122.438686,Corona Heights,4,Condominium,1904,938211,"1,475,100",94114,82789821
59,Address: 1315 21st Avenue, San FranciscoSales price: 1325000Sales date: 02/11/2016Bedrooms: 0Square feet: 1416Lot size: 2374,1315 21st Ave,1.25,2,1621,02/11/2016,1325000,37.763108,-122.479527,Central Sunset,6,SingleFamily,1911,1225848,"1,125,700",94122,15103026
60,Address: 4229 26th Street, San FranciscoSales price: 2525000Sales date: 02/11/2016Bedrooms: 3Square feet: 2398Lot size: 2736,4229 26th St,3,3,2048,02/11/2016,2525000,37.747788,-122.434812,Noe Valley,7,SingleFamily,1900,2641338,"1,782,000",94131,15181667
70,Address: 361 Texas Street, San FranciscoSales price: 2300000Sales date: 02/10/2016Bedrooms: 2Square feet: 1880Lot size: 2495,361 Texas St,2,3,2080,02/10/2016,2300000,37.761845,-122.395171,Potrero Hill,7,SingleFamily,1906,2058271,"1,277,600",94107,15149547
71,Address: 667 Shotwell Street #A, San FranciscoSales price: 775000Sales date: 02/10/2016Bedrooms: 2Square feet: 1212Lot size: 0,667 Shotwell St # A,1,1,1212,02/10/2016,775000,37.757851,-122.415629,Mission,4,Condominium,1890,1197178,"1,185,400",94110,123597388
72,Address: 2919 Pacific Avenue #6, San FranciscoSales price: 1457000Sales date: 02/10/2016Bedrooms: 2Square feet: 1125Lot size: 6851,2919 Pacific Ave APT 6,2,2,1125,02/10/2016,1457000,37.79197,-122.44344,Pacific Heights,4,Condominium,1905,1488108,"1,910,700",94115,15081126
74,Address: 2455 14th Avenue, San FranciscoSales price: 1525000Sales date: 02/10/2016Bedrooms: 3Square feet: 1700Lot size: 4046,2455 14th Ave,3.75,4,1846,02/10/2016,1525000,37.742271,-122.470518,West Portal,5,SingleFamily,1932,1195679,"1,565,000",94116,15122857
75,Address: 30 Beaumont Avenue, San FranciscoSales price: 550000Sales date: 02/10/2016Bedrooms: 3Square feet: 1164Lot size: 2863,30 Beaumont Ave,1,3,1164,02/10/2016,550000,37.780933,-122.454866,Lone Mountain,6,SingleFamily,1922,1247699,"1,447,700",94118,15083789
76,Address: 108 16th Avenue, San FranciscoSales price: 3800000Sales date: 02/10/2016Bedrooms: 7Square feet: 4808Lot size: 2750,108 16th Ave,5,7,4808,02/10/2016,3800000,37.785945,-122.475319,Lake,15,MultiFamily2To4,1914,4498161,"2,244,500",94118,15090052
77,Address: 766 30th Avenue, San FranciscoSales price: 1900000Sales date: 02/10/2016Bedrooms: 5Square feet: 2520Lot size: 3000,766 30th Ave,4,4,2520,02/10/2016,1900000,37.774837,-122.489397,Central Richmond,8,SingleFamily,1927,1931715,"1,485,300",94121,15097411
86,Address: 601 Van Ness Avenue #629, San FranciscoSales price: 620000Sales date: 02/09/2016Bedrooms: 1Square feet: 706Lot size: 105806,601 Van Ness Ave APT 629,1,1,706,02/09/2016,620000,37.781386,-122.421406,Van Ness - Civic Center,3,Condominium,1982,623886,"855,500",94102,15077721
90,Address: 260 King Street #815, San FranciscoSales price: 800000Sales date: 02/09/2016Bedrooms: 1Square feet: 903Lot size: 213232,260 King St UNIT 815,1,1,903,02/09/2016,800000,37.777641,-122.393417,South of Market,3,Condominium,2004,807995,"975,700",94107,69819637
92,Address: 2040 Fell Street #12, San FranciscoSales price: 872500Sales date: 02/09/2016Bedrooms: 0Square feet: 1593Lot size: 33772,2040 Fell St APT 12,1,2,1593,02/09/2016,872500,37.772597,-122.451587,North Panhandle,4,Condominium,1925,996489,"1,231,800",94117,15086324
93,Address: 784 Spruce Street, San FranciscoSales price: 1535000Sales date: 02/09/2016Bedrooms: 0Square feet: 2060Lot size: 2495,784-786 Spruce St,3,8,2600,02/09/2016,1535000,37.780606,-122.452663,Lone Mountain,10,MultiFamily2To4,1927,1524759,"1,447,700",94118,15083824
95,Address: 1444 17th Avenue #101, San FranciscoSales price: 1600000Sales date: 02/09/2016Bedrooms: 2Square feet: 1902Lot size: 3000,1444 17th Ave # 101,3,3,1902,02/09/2016,1600000,37.760979,-122.474469,Inner Sunset,6,Condominium,1996,1419587,"1,357,900",94122,15105664
96,Address: 1618 12th Avenue, San FranciscoSales price: 1625000Sales date: 02/09/2016Bedrooms: 0Square feet: 2349Lot size: 3015,1618 12th Ave,3,4,2900,02/09/2016,1625000,37.757906,-122.468775,Inner Sunset,8,Condominium,2001,1597121,"1,357,900",94122,59718406
98,Address: 5696 Diamond Heights Boulevard, San FranciscoSales price: 2050000Sales date: 02/09/2016Bedrooms: 3Square feet: 2435Lot size: 2585,5696 Diamond Heights Blvd,3.5,3,2435,02/09/2016,2050000,37.738831,-122.439262,Diamond Heights,7,SingleFamily,1980,2016900,"1,098,500",94131,15199559
103,Address: 901 Post Street #2, San FranciscoSales price: 885000Sales date: 02/08/2016Bedrooms: 3Square feet: 1207Lot size: 700,901 Post St # 2,2,3,1207,02/08/2016,885000,37.787089,-122.416761,Downtown,9,Condominium,2002,1626076,"807,800",94109,61325028
104,Address: 66 Cleary Court #1504, San FranciscoSales price: 960000Sales date: 02/08/2016Bedrooms: 3Square feet: 1106Lot size: 65376,66 Cleary Ct APT 1504,2,3,1106,02/08/2016,960000,37.784298,-122.427058,Western Addition,6,Condominium,1963,957064,"983,400",94109,15076984
105,Address: 1800 Bryant Street #202, San FranciscoSales price: 825000Sales date: 02/08/2016Bedrooms: 1Square feet: 935Lot size: 14972,1800 Bryant St STE 202,2,1,935,02/08/2016,825000,37.764088,-122.410828,Mission,3,Condominium,2000,889532,"1,185,400",94110,54487721
106,Address: 3919 17th Street, San FranciscoSales price: 1065000Sales date: 02/08/2016Bedrooms: 1Square feet: 968Lot size: 1584,3919 17th St,1,2,968,02/08/2016,1065000,37.76241,-122.433456,Eureka Valley - Dolores Heights - Castro,4,MultiFamily2To4,1910,989982,"1,744,100",94114,63158562
108,Address: 325 Locust Street, San FranciscoSales price: 1925000Sales date: 02/08/2016Bedrooms: 3Square feet: 1950Lot size: 312,325 Locust St,2,3,1950,02/08/2016,1925000,37.787916,-122.452338,Presidio Heights,7,Condominium,1905,2521256,"5,333,500",94118,50883158
109,Address: 50 Longview Court, San FranciscoSales price: 1250000Sales date: 02/08/2016Bedrooms: 3Square feet: 1703Lot size: 2805,50 Longview Ct,2,4,1703,02/08/2016,1250000,37.748415,-122.450795,Midtown Terrace,8,SingleFamily,1955,1358996,"1,117,200",94131,15131999
116,Address: 2243 Franklin Street, San FranciscoSales price: 1950000Sales date: 02/05/2016Bedrooms: 2Square feet: 1463Lot size: 3582,2243 Franklin St,2,2,1463,02/05/2016,1950000,37.795139,-122.425309,Pacific Heights,7,Condominium,1900,1922387,"1,910,700",94109,15073030
117,Address: 576 Brunswick Street, San FranciscoSales price: 609000Sales date: 02/05/2016Bedrooms: 0Square feet: 1200Lot size: 2661,576 Brunswick St,1,2,1200,02/05/2016,609000,37.710208,-122.445075,Crocker Amazon,5,SingleFamily,1931,637413,"823,000",94112,15179045
118,Address: 79 Seward Street, San FranciscoSales price: 2350000Sales date: 02/05/2016Bedrooms: 3Square feet: 2650Lot size: 2622,79 Seward St,2,3,2650,02/05/2016,2350000,37.758626,-122.440801,Eureka Valley - Dolores Heights - Castro,8,SingleFamily,1929,2211797,"1,744,100",94114,15129566
120,Address: 2105 Buchanan Street #6, San FranciscoSales price: 1770000Sales date: 02/05/2016Bedrooms: 2Square feet: 1700Lot size: 4668,2105 Buchanan St APT 6,2,3,1700,02/05/2016,1770000,37.789597,-122.430787,Pacific Heights,5,Condominium,1921,1137507,"1,910,700",94115,15074690
121,Address: 2017 Buchanan Street, San FranciscoSales price: 2800000Sales date: 02/05/2016Bedrooms: 4Square feet: 2850Lot size: 2152,2017 Buchanan St,4,4,2850,02/05/2016,2800000,37.788913,-122.430728,Lower Pacific Heights,7,Condominium,1890,3032479,"1,178,700",94115,21699068
122,Address: 1015 Ashbury Street #2, San FranciscoSales price: 1350000Sales date: 02/05/2016Bedrooms: 0Square feet: 1147Lot size: 4988,1015 Ashbury St APT 2,2,2,1252,02/05/2016,1350000,37.76432,-122.446342,Parnassus - Ashbury,4,Condominium,1913,1300995,"2,151,400",94117,79843553
125,Address: 170 Bridgeview Drive, San FranciscoSales price: 725000Sales date: 02/05/2016Bedrooms: 3Square feet: 1297Lot size: 3070,170 Bridgeview Dr,2,3,1297,02/05/2016,725000,37.735503,-122.397062,Silver Terrace,6,SingleFamily,1964,797170,"736,700",94124,15157051
126,Address: 884 Ingerson Avenue, San FranciscoSales price: 850000Sales date: 02/05/2016Bedrooms: 0Square feet: 1789Lot size: 2495,884 Ingerson Ave,3,5,1789,02/05/2016,850000,37.71805,-122.390617,Bayview,8,SingleFamily,1964,910894,"731,900",94124,15154657
127,Address: 475 Princeton Street, San FranciscoSales price: 860000Sales date: 02/05/2016Bedrooms: 0Square feet: 1254Lot size: 1751,475 Princeton St,1,2,1254,02/05/2016,860000,37.72396,-122.413872,Portola,5,SingleFamily,1949,789444,"888,400",94134,15170072
133,Address: 333 1st Street #1702, San FranciscoSales price: 885000Sales date: 02/04/2016Bedrooms: 1Square feet: 713Lot size: 38571,333 1st St UNIT 1702,1,1,713,02/04/2016,885000,37.787031,-122.393642,South Beach,3,Condominium,2004,903954,"1,286,900",94105,64972552
136,Address: 861 Rhode Island Street #A, San FranciscoSales price: 1110000Sales date: 02/04/2016Bedrooms: 3Square feet: 1995Lot size: 2495,961A Rhode Island St,2.5,4,2166,06/11/2015,1600000,37.757681,-122.401578,Potrero Hill,11,MultiFamily2To4,1908,1599122,"1,277,600",94107,15150449
140,Address: 415 Amherst Street, San FranciscoSales price: 760000Sales date: 02/04/2016Bedrooms: 0Square feet: 1000Lot size: 1751,415 Amherst St,1,2,1000,02/04/2016,760000,37.724352,-122.415124,Portola,4,SingleFamily,1949,765401,"888,400",94134,15170058
147,Address: 201 Holly Park Circle, San FranciscoSales price: 227500Sales date: 02/03/2016Bedrooms: 3Square feet: 2250Lot size: 1712,201 Holly Park Cir,2,3,2250,02/03/2016,227500,37.737764,-122.418634,Bernal Heights,8,SingleFamily,1910,1402002,"1,248,000",94110,15163518
148,Address: 30 Otsego Avenue, San FranciscoSales price: 1300000Sales date: 02/03/2016Bedrooms: 3Square feet: 1806Lot size: 3140,30 Otsego Ave,2,3,1806,02/03/2016,1300000,37.726945,-122.439334,Mission Terrace,7,SingleFamily,1924,1211468,"992,600",94112,15140181
152,Address: 80 Venus Street, San FranciscoSales price: 810000Sales date: 02/03/2016Bedrooms: 0Square feet: 1200Lot size: 2487,80 Venus St,1.5,3,1200,02/03/2016,810000,37.731771,-122.397584,Silver Terrace,5,SingleFamily,1941,696627,"736,700",94124,15157490
154,Address: 1816 Castro Street, San FranciscoSales price: 850000Sales date: 02/03/2016Bedrooms: 0Square feet: 884Lot size: 3180,1816 Castro St,1,2,884,02/03/2016,850000,37.747035,-122.433868,Noe Valley,5,Condominium,1918,1027971,"1,782,000",94131,89236680
156,Address: 149 Laidley Street, San FranciscoSales price: 1950000Sales date: 02/03/2016Bedrooms: 3Square feet: 2100Lot size: 2500,149 Laidley St,2,3,2100,02/03/2016,1950000,37.739623,-122.428899,Glen Park,10,SingleFamily,1900,1880749,"1,660,200",94131,15184023
160,Address: 737 Tehama Street #1, San FranciscoSales price: 1030000Sales date: 02/02/2016Bedrooms: 2Square feet: 883Lot size: 1554,737 Tehama St # 1,2,2,977,02/02/2016,1030000,37.775184,-122.411567,South of Market,5,Condominium,2006,1004132,"975,700",94103,79845585
164,Address: 319 De Long Street, San FranciscoSales price: 565000Sales date: 02/02/2016Bedrooms: 2Square feet: 875Lot size: 2256,319 De Long St,1,2,875,02/02/2016,565000,37.709411,-122.465031,Outer Mission,4,SingleFamily,1950,642369,"814,200",94112,15196286
165,Address: 1655 48th Avenue, San FranciscoSales price: 762000Sales date: 02/02/2016Bedrooms: 0Square feet: 697Lot size: 2996,1655 48th Ave,1,2,697,02/02/2016,762000,37.755586,-122.508063,Outer Sunset,4,SingleFamily,1904,711217,"1,031,800",94122,15108054
173,Address: 4219 Folsom Street, San FranciscoSales price: 950000Sales date: 02/01/2016Bedrooms: 0Square feet: 1539Lot size: 1751,4219 Folsom St,2,3,1539,02/01/2016,950000,37.734334,-122.413534,Bernal Heights,7,SingleFamily,1976,965984,"1,248,000",94110,15164756
188,Address: 403 Main Street #518N, San FranciscoSales price: 1415000Sales date: 01/29/2016Bedrooms: 2Square feet: 1118Lot size: 29037,403 Main St APT 518N,2,2,1118,01/29/2016,1415000,37.788008,-122.389643,South Beach,5,Condominium,1997,1277409,"1,286,900",94105,15148615
190,Address: 188 Minna Street #38C, San FranciscoSales price: 7500000Sales date: 01/29/2016Bedrooms: 2Square feet: 1670Lot size: 33056,188 Minna St APT 38C,2.5,2,1670,01/29/2016,7500000,37.786289,-122.401374,Yerba Buena,5,Condominium,2005,4118863,"1,006,900",94105,69819214
193,Address: 1200 Gough Street #22B, San FranciscoSales price: 650000Sales date: 01/29/2016Bedrooms: 1Square feet: 550Lot size: 44676,1200 Gough St APT 22B,1,0,550,01/29/2016,650000,37.78482,-122.423994,Van Ness - Civic Center,2,Condominium,1966,667585,"855,500",94109,15077111
194,Address: 979 Guerrero Street, San FranciscoSales price: 1275000Sales date: 01/29/2016Bedrooms: 2Square feet: 1440Lot size: 0,979 Guerrero St,2,3,1440,01/29/2016,1275000,37.755554,-122.42316,Mission,7,Condominium,1885,1472631,"1,185,400",94110,119685723
196,Address: 1940 Buchanan Street, San FranciscoSales price: 1250000Sales date: 01/29/2016Bedrooms: 2Square feet: 1480Lot size: 1851,1940 Buchanan St,1,3,1480,01/29/2016,1250000,37.788038,-122.430024,Lower Pacific Heights,5,Condominium,1904,1574733,"1,178,700",94115,15075414
198,Address: 2275 47th Avenue, San FranciscoSales price: 1225000Sales date: 01/29/2016Bedrooms: 0Square feet: 2193Lot size: 2996,2275 47th Ave,2.5,4,2193,01/29/2016,1225000,37.744067,-122.506187,Outer Parkside,7,SingleFamily,1962,1358925,"981,900",94116,15118457
199,Address: 988 Fulton Street #326, San FranciscoSales price: 555000Sales date: 01/29/2016Bedrooms: 1Square feet: 417Lot size: 41262,988 Fulton St APT 326,1,1,417,01/29/2016,555000,37.778034,-122.43251,Western Addition,5,Condominium,1999,588432,"983,400",94117,79845444
200,Address: 487 19th Avenue, San FranciscoSales price: 1900000Sales date: 01/29/2016Bedrooms: 4Square feet: 2596Lot size: 2063,487 19th Ave,4,4,2596,01/29/2016,1900000,37.778728,-122.478448,Central Richmond,9,SingleFamily,1916,2102133,"1,485,300",94121,15093995
203,Address: 448 Gold Mine Drive, San FranciscoSales price: 1558000Sales date: 01/29/2016Bedrooms: 4Square feet: 2275Lot size: 2935,448 Gold Mine Dr,3,4,2200,01/29/2016,1558000,37.739244,-122.4371,Diamond Heights,7,SingleFamily,1968,1775216,"1,098,500",94131,15199573
204,Address: 8200 Oceanview Terrace #310, San FranciscoSales price: 658000Sales date: 01/29/2016Bedrooms: 2Square feet: 969Lot size: 325629,8200 Oceanview Ter APT 310,2,2,969,01/29/2016,658000,37.71048,-122.467645,Ingleside Heights,4,Condominium,2002,629228,"710,500",94132,67394879
216,Address: 750 Delano Avenue, San FranciscoSales price: 738000Sales date: 01/28/2016Bedrooms: 2Square feet: 840Lot size: 1680,750 Delano Ave,1,2,840,01/28/2016,738000,37.719505,-122.445759,Outer Mission,4,SingleFamily,1987,715379,"814,200",94112,15188832
217,Address: 5 Lobos Street, San FranciscoSales price: 950000Sales date: 01/28/2016Bedrooms: 4Square feet: 1726Lot size: 5871,5 Lobos St,2,4,1726,01/28/2016,950000,37.714682,-122.452504,Oceanview,7,SingleFamily,1974,939221,"762,700",94112,15194340
218,Address: 4524 Balboa Street, San FranciscoSales price: 961000Sales date: 01/28/2016Bedrooms: 2Square feet: 1200Lot size: 3162,4524 Balboa St,1,2,1200,01/28/2016,961000,37.775504,-122.507477,Outer Richmond,5,SingleFamily,1918,913987,"1,214,000",94121,15096451
221,Address: 527 Randolph Street, San FranciscoSales price: 695500Sales date: 01/28/2016Bedrooms: 0Square feet: 950Lot size: 1973,527 Randolph St,1,2,950,01/28/2016,695500,37.714051,-122.467584,Ingleside Heights,4,SingleFamily,1947,643848,"710,500",94132,15195083
222,Address: 1407 Montgomery Street #2, San FranciscoSales price: 976000Sales date: 01/28/2016Bedrooms: 0Square feet: 1028Lot size: 2187,1407 Montgomery St APT 2,1,1,1000,01/28/2016,976000,37.802299,-122.404941,Telegraph Hill,3,Condominium,1870,1044112,"1,238,700",94133,15065140
229,Address: 574 Natoma Street #102, San FranciscoSales price: 502000Sales date: 01/27/2016Bedrooms: 0Square feet: 376Lot size: 0,574 Natoma St APT 102,1,0,376,01/27/2016,502000,37.779014,-122.409446,South of Market,1,Condominium,2012,513968,"975,700",94103,119685119
239,Address: 65 Bishop Street, San FranciscoSales price: 675000Sales date: 01/27/2016Bedrooms: 0Square feet: 800Lot size: 2500,65 Bishop St,1,3,800,01/27/2016,675000,37.718075,-122.404179,Visitacion Valley,4,SingleFamily,1900,692286,"707,100",94134,15172626
253,Address: 701 Pennsylvania Avenue, San FranciscoSales price: 850000Sales date: 01/26/2016Bedrooms: 1Square feet: 756Lot size: 7569,701 Pennsylvania Ave # T13,2,1,842,03/24/2015,640000,37.75738,-122.39283,Potrero Hill,2,Condominium,1999,905401,"1,277,600",94107,58770199
254,Address: 88 King Street #1121, San FranciscoSales price: 1650000Sales date: 01/26/2016Bedrooms: 2Square feet: 1111Lot size: 82157,88 King St UNIT 1121,2,2,1111,01/26/2016,1650000,37.780117,-122.389648,South Beach,4,MultiFamily2To4,2000,1376614,"1,286,900",94107,80732286
255,Address: 57 Moneta Way, San FranciscoSales price: 860000Sales date: 01/26/2016Bedrooms: 0Square feet: 1325Lot size: 2339,57 Moneta Way,1,4,1325,01/26/2016,860000,37.712918,-122.449446,Outer Mission,6,SingleFamily,1929,932005,"814,200",94112,15194044
256,Address: 164 Seville Street, San FranciscoSales price: 1125000Sales date: 01/26/2016Bedrooms: 0Square feet: 852Lot size: 2421,164 Seville St,3,3,2234,01/26/2016,1125000,37.711727,-122.437085,Crocker Amazon,3,SingleFamily,1924,917185,"823,000",94112,15178148
257,Address: 145 Alpine Terrace, San FranciscoSales price: 5100000Sales date: 01/26/2016Bedrooms: 6Square feet: 4749Lot size: 3153,145-147 Alpine Ter,5.5,6,4749,01/26/2016,5100000,37.768186,-122.437144,Buena Vista Park,10,SingleFamily,2007,4791629,"1,500,900",94117,89240567
260,Address: 3023 Broderick Street, San FranciscoSales price: 1800000Sales date: 01/26/2016Bedrooms: 2Square feet: 1591Lot size: 2579,3023 Broderick St,2.5,3,1591,01/26/2016,1800000,37.798244,-122.44452,Cow Hollow,9,Condominium,1938,2145649,"2,151,200",94123,15080276
263,Address: 4173 Cesar Chavez Street, San FranciscoSales price: 4500000Sales date: 01/26/2016Bedrooms: 0Square feet: 1950Lot size: 2848,4173 Cesar Chavez St,4,4,3480,01/26/2016,4500000,37.747092,-122.432912,Noe Valley,8,SingleFamily,1900,2962385,"1,782,000",94131,15182099
275,Address: 830 Alabama Street #B, San FranciscoSales price: 1370000Sales date: 01/25/2016Bedrooms: 2Square feet: 1465Lot size: 0,830 Alabama St # B,2,3,1853,01/25/2016,1370000,37.75816,-122.411765,Mission,9,Condominium,1900,1642925,"1,185,400",94110,116157280
277,Address: 95 Stoneyford Avenue, San FranciscoSales price: 910000Sales date: 01/25/2016Bedrooms: 3Square feet: 1065Lot size: 2208,95 Stoneyford Ave,2,3,1400,01/25/2016,910000,37.729425,-122.42111,Excelsior,6,SingleFamily,1942,863116,"767,600",94112,15165922
282,Address: 518 Oak Street, San FranciscoSales price: 1475000Sales date: 01/22/2016Bedrooms: 2Square feet: 1105Lot size: 1994,518 Oak St,1,2,1105,01/22/2016,1475000,37.774467,-122.428491,Hayes Valley,6,SingleFamily,1870,1365025,"1,224,800",94102,15078647
284,Address: 1160 Mission Street #1908, San FranciscoSales price: 1475000Sales date: 01/22/2016Bedrooms: 2Square feet: 1201Lot size: 43557,1160 Mission St UNIT 1908,2,2,1201,01/22/2016,1475000,37.778705,-122.412635,South of Market,4,Condominium,2008,1418851,"975,700",94103,82785931
288,Address: 451 Kansas Street #461, San FranciscoSales price: 640000Sales date: 01/22/2016Bedrooms: 0Square feet: 450Lot size: 80311,451 Kansas St UNIT 461,1,0,450,01/22/2016,640000,37.764114,-122.402984,Potrero Hill,2,Condominium,2007,631335,"1,277,600",94107,89237945
290,Address: 2002 Pacific Avenue #4, San FranciscoSales price: 4200000Sales date: 01/22/2016Bedrooms: 3Square feet: 3291Lot size: 5500,2002 Pacific Ave APT 4,3.5,3,3291,01/22/2016,4200000,37.794429,-122.428513,Pacific Heights,7,Condominium,1961,4163277,"1,910,700",94109,15073090
291,Address: 554 Anderson Street, San FranciscoSales price: 920000Sales date: 01/22/2016Bedrooms: 0Square feet: 1015Lot size: 1751,554 Anderson St,1,2,1015,01/22/2016,920000,37.736454,-122.415593,Bernal Heights,5,SingleFamily,1910,738780,"1,248,000",94110,15163807
292,Address: 566 South Van Ness Avenue #9, San FranciscoSales price: 945000Sales date: 01/22/2016Bedrooms: 2Square feet: 941Lot size: 12255,566 S Van Ness Ave APT 9,2,2,941,01/22/2016,945000,37.763992,-122.417823,Mission,5,Condominium,2007,1000174,"1,185,400",94110,82785786
293,Address: 624 Hampshire Street, San FranciscoSales price: 1250000Sales date: 01/22/2016Bedrooms: 3Square feet: 962Lot size: 2495,624 Hampshire St,1,2,962,01/22/2016,1250000,37.761456,-122.408461,Mission,5,SingleFamily,1900,1082093,"1,185,400",94110,15149210
295,Address: 40 Mirabel Avenue, San FranciscoSales price: 1530000Sales date: 01/22/2016Bedrooms: 0Square feet: 1190Lot size: 1799,40 Mirabel Ave,2,2,1393,01/22/2016,1530000,37.746247,-122.416564,Bernal Heights,6,SingleFamily,1924,1481020,"1,248,000",94110,15160002
296,Address: 712 Dorado Terrace #53, San FranciscoSales price: 780000Sales date: 01/22/2016Bedrooms: 2Square feet: 1332Lot size: 87122,712 Dorado Ter # 53,2.5,2,1332,01/22/2016,780000,37.725575,-122.4616,Mount Davidson Manor,4,Condominium,1985,773173,"1,378,600",94112,15142328
297,Address: 264 Grand View Avenue, San FranciscoSales price: 1193000Sales date: 01/22/2016Bedrooms: 0Square feet: 590Lot size: 2495,264 Grand View Ave,1,1,590,01/22/2016,1193000,37.754001,-122.441489,Twin Peaks,5,SingleFamily,1907,1064070,"1,180,100",94114,15130589
298,Address: 4450 24th Street, San FranciscoSales price: 1400000Sales date: 01/22/2016Bedrooms: 3Square feet: 1352Lot size: 2945,4450 24th St,3,4,2500,01/22/2016,1400000,37.751072,-122.441843,Noe Valley,5,SingleFamily,1900,2088377,"1,782,000",94114,15132245
299,Address: 584 Sanchez Street, San FranciscoSales price: 2210000Sales date: 01/22/2016Bedrooms: 0Square feet: 2610Lot size: 2625,584-588 Sanchez St,4,4,2610,01/22/2016,2210000,37.759799,-122.43077,Eureka Valley - Dolores Heights - Castro,13,MultiFamily2To4,1900,3230417,"1,744,100",94114,15144461
300,Address: 300 Castro Street, San FranciscoSales price: 2400000Sales date: 01/22/2016Bedrooms: 2Square feet: 2451Lot size: 4691,300 Castro St,3,4,2451,01/22/2016,2400000,37.763918,-122.435614,Corona Heights,12,Miscellaneous,1900,2089411,"1,475,100",94114,15127442
301,Address: 2319 39th Avenue, San FranciscoSales price: 890000Sales date: 01/22/2016Bedrooms: 4Square feet: 1362Lot size: 2996,2319 39th Ave,2,4,1362,01/22/2016,890000,37.743541,-122.497548,Outer Parkside,6,SingleFamily,1955,1233120,"981,900",94116,15121040
302,Address: 27 Cutler Avenue, San FranciscoSales price: 1325000Sales date: 01/22/2016Bedrooms: 0Square feet: 1011Lot size: 2495,27 Cutler Ave,3,4,1622,01/28/2016,1325000,37.736824,-122.505856,Outer Parkside,9,SingleFamily,1949,751906,"981,900",94116,15124521
303,Address: 1535 Oak Street #2, San FranciscoSales price: 815000Sales date: 01/22/2016Bedrooms: 0Square feet: 765Lot size: 3710,1535 Oak St APT 2,1,1,765,01/22/2016,815000,37.771928,-122.4446,Haight-Ashbury,12,Condominium,1924,940621,"1,369,500",94117,53153292
307,Address: 558 17th Avenue, San FranciscoSales price: 1240000Sales date: 01/22/2016Bedrooms: 0Square feet: 1990Lot size: 2996,558-560 17TH Ave,3,5,1990,01/22/2016,1240000,37.777463,-122.47562,Central Richmond,8,MultiFamily2To4,1916,1810327,"1,485,300",94121,15095169
308,Address: 1722 31st Avenue, San FranciscoSales price: 1700000Sales date: 01/22/2016Bedrooms: 4Square feet: 1824Lot size: 3000,1722 31st Ave,2,4,1824,01/22/2016,1700000,37.755071,-122.489092,Central Sunset,6,SingleFamily,1940,965204,"1,125,700",94122,15110808
310,Address: 17 San Andreas Way, San FranciscoSales price: 3750000Sales date: 01/22/2016Bedrooms: 0Square feet: 3900Lot size: 11360,17 San Andreas Way,4.5,5,4095,01/22/2016,3750000,37.734454,-122.463624,St. Francis Wood,9,SingleFamily,1937,4381290,"3,056,100",94127,15138189
313,Address: 319 Arleta Avenue, San FranciscoSales price: 417000Sales date: 01/22/2016Bedrooms: 5Square feet: 1875Lot size: 2500,319 Arleta Ave,3,5,1875,01/22/2016,417000,37.714392,-122.409432,Visitacion Valley,7,SingleFamily,1989,862924,"707,100",94134,15174050
317,Address: 4390 26th Street, San FranciscoSales price: 2600000Sales date: 01/22/2016Bedrooms: 3Square feet: 2837Lot size: 1724,4390 26th St,3,5,2837,01/22/2016,2600000,37.748021,-122.437943,Noe Valley,9,SingleFamily,1928,2706923,"1,782,000",94131,15181575
325,Address: 250 King Street #1008, San FranciscoSales price: 825000Sales date: 01/21/2016Bedrooms: 1Square feet: 787Lot size: 213232,250 King St UNIT 1008,1,1,787,01/21/2016,825000,37.777374,-122.393157,South of Market,3,Condominium,2004,794744,"975,700",94107,80755158
328,Address: 724 Noe Street, San FranciscoSales price: 1680000Sales date: 01/21/2016Bedrooms: 0Square feet: 1577Lot size: 2827,724 Noe St,2,3,1577,01/21/2016,1680000,37.757402,-122.432758,Eureka Valley - Dolores Heights - Castro,6,SingleFamily,1927,1934498,"1,744,100",94114,15145232
329,Address: 855 La Playa Street #162, San FranciscoSales price: 578000Sales date: 01/21/2016Bedrooms: 1Square feet: 805Lot size: 36683,855 La Playa St APT 162,1,1,805,01/21/2016,578000,37.772199,-122.510375,Outer Richmond,4,Condominium,1982,587098,"1,214,000",94121,15100635
330,Address: 855 La Playa Street #360, San FranciscoSales price: 750000Sales date: 01/21/2016Bedrooms: 2Square feet: 1193Lot size: 36683,855 La Playa St APT 360,2,2,1193,01/21/2016,750000,37.772199,-122.510375,Outer Richmond,4,Condominium,1982,851710,"1,214,000",94121,15100665
331,Address: 4220 Irving Street, San FranciscoSales price: 1150000Sales date: 01/21/2016Bedrooms: 2Square feet: 1175Lot size: 2495,4220 Irving St,2,3,1675,01/21/2016,1150000,37.762654,-122.503312,Outer Sunset,7,SingleFamily,1950,966107,"1,031,800",94122,15100990
332,Address: 1423 Oakdale Avenue, San FranciscoSales price: 638000Sales date: 01/21/2016Bedrooms: 0Square feet: 1125Lot size: 2495,1423 Oakdale Ave,2,3,1125,01/21/2016,638000,37.732554,-122.38726,Bayview,4,SingleFamily,1938,601102,"731,900",94124,15156494
334,Address: 15 Bishop Street, San FranciscoSales price: 851000Sales date: 01/21/2016Bedrooms: 4Square feet: 2200Lot size: 2500,15 Bishop St,3,4,2200,01/21/2016,851000,37.718594,-122.403955,Visitacion Valley,8,SingleFamily,1980,873975,"707,100",94134,15172634
346,Address: 9 Edgar Place, San FranciscoSales price: 1175000Sales date: 01/20/2016Bedrooms: 2Square feet: 1437Lot size: 2694,9 Edgar Pl,4,4,1800,01/20/2016,1175000,37.720695,-122.452421,Ingleside,8,SingleFamily,1925,937445,"814,200",94112,15189011
347,Address: 1949 McAllister Street, San FranciscoSales price: 1505000Sales date: 01/20/2016Bedrooms: 2Square feet: 2160Lot size: 3437,1949 Mcallister St,3,2,2160,01/20/2016,1505000,37.776786,-122.444044,North Panhandle,7,Condominium,1900,2315675,"1,231,800",94115,61288340
362,Address: 10 Miller Place #701, San FranciscoSales price: 1290000Sales date: 01/19/2016Bedrooms: 2Square feet: 1000Lot size: 5236,10 Miller Pl APT 701,2,2,1000,01/19/2016,1290000,37.793228,-122.40891,Nob Hill,4,MultiFamily2To4,1963,1795546,"1,459,200",94108,15068117
364,Address: 766 40th Avenue, San FranciscoSales price: 1000000Sales date: 01/19/2016Bedrooms: 0Square feet: 875Lot size: 3000,766 40th Ave,1,2,1034,01/19/2016,1000000,37.774327,-122.500107,Outer Richmond,5,SingleFamily,1924,1101153,"1,214,000",94121,15096980
365,Address: 22 Magnolia Street, San FranciscoSales price: 1375000Sales date: 01/19/2016Bedrooms: 2Square feet: 1180Lot size: 1600,22 Magnolia St,1,2,1231,01/19/2016,1375000,37.80106,-122.43171,Marina,5,Condominium,1927,1441734,"2,186,800",94123,15070810
376,Address: 170 King Street #928, San FranciscoSales price: 1262500Sales date: 01/15/2016Bedrooms: 2Square feet: 1092Lot size: 42969,170 King St UNIT 928,2,2,1092,01/15/2016,1262500,37.77898,-122.391754,South Beach,4,Condominium,2007,1312018,"1,286,900",94107,83153668
378,Address: 29 Cumberland Street, San FranciscoSales price: 1300000Sales date: 01/15/2016Bedrooms: 3Square feet: 1525Lot size: 2877,29 Cumberland St,1,3,1525,01/15/2016,1300000,37.758876,-122.424258,Mission,6,Condominium,1907,1537770,"1,185,400",94110,79842405
380,Address: 101 Lombard Street #610W, San FranciscoSales price: 876500Sales date: 01/15/2016Bedrooms: 0Square feet: 923Lot size: 113438,101 Lombard St APT 610W,1,1,1030,01/15/2016,876500,37.80347,-122.40409,Telegraph Hill,4,Condominium,1984,1028719,"1,238,700",94111,15064974
381,Address: 89 Theresa Street, San FranciscoSales price: 875000Sales date: 01/15/2016Bedrooms: 0Square feet: 1088Lot size: 1799,89 Theresa St,1,2,1088,01/15/2016,875000,37.728438,-122.434292,Mission Terrace,5,SingleFamily,1923,876871,"992,600",94112,15186768
382,Address: 2200 Sacramento Street #901, San FranciscoSales price: 1125000Sales date: 01/15/2016Bedrooms: 2Square feet: 952Lot size: 17550,2200 Sacramento St APT 901,2,1,952,01/15/2016,1125000,37.790681,-122.429498,Pacific Heights,4,Condominium,1964,1170349,"1,910,700",94115,15074435
383,Address: 2299 Sacramento Street #3, San FranciscoSales price: 1150000Sales date: 01/15/2016Bedrooms: 2Square feet: 1406Lot size: 6381,2299 Sacramento St APT 3,1,2,1406,01/15/2016,1150000,37.790011,-122.43048,Pacific Heights,5,Condominium,1913,1262766,"1,910,700",94115,15074750
384,Address: 2133 Pine Street, San FranciscoSales price: 1550000Sales date: 01/15/2016Bedrooms: 9Square feet: 5085Lot size: 2500,2133-2137 Pine St,7,9,5085,01/15/2016,1550000,37.787988,-122.431495,Lower Pacific Heights,15,MultiFamily2To4,1900,5461047,"1,178,700",94115,15075357
386,Address: 2670 47th Avenue, San FranciscoSales price: 1075000Sales date: 01/15/2016Bedrooms: 4Square feet: 1546Lot size: 2996,2670 47th Ave,3,4,1546,01/15/2016,1075000,37.736702,-122.505008,Outer Parkside,7,SingleFamily,1944,1013806,"981,900",94116,15124563
389,Address: 107 19th Avenue, San FranciscoSales price: 1150000Sales date: 01/15/2016Bedrooms: 2Square feet: 1125Lot size: 3250,107 19th Ave,2,2,1125,01/15/2016,1150000,37.785783,-122.478874,Lake,4,Condominium,1921,1292703,"2,244,500",94121,79845383
390,Address: 1501 Greenwich Street #304, San FranciscoSales price: 1150000Sales date: 01/15/2016Bedrooms: 2Square feet: 958Lot size: 12161,1501 Greenwich St UNIT 304,2,2,958,01/15/2016,1150000,37.80009,-122.424682,Cow Hollow,4,Condominium,2008,1216690,"2,151,200",94123,89238205
391,Address: 1738 Lombard Street #T4, San FranciscoSales price: 1400000Sales date: 01/15/2016Bedrooms: 2Square feet: 1038Lot size: 5844,1738 Lombard St # T4,2,2,1078,01/15/2016,1400000,37.80091,-122.430229,Marina,4,Condominium,2004,1349828,"2,186,800",94123,67394894
392,Address: 3725 Webster Street, San FranciscoSales price: 1963000Sales date: 01/15/2016Bedrooms: 2Square feet: 1717Lot size: 2500,3725 Webster St,2,3,1717,01/15/2016,1963000,37.805118,-122.435725,Marina,13,SingleFamily,1938,2546902,"2,186,800",94123,53734092
393,Address: 3027 Webster Street, San FranciscoSales price: 2350000Sales date: 01/15/2016Bedrooms: 0Square feet: 2002Lot size: 1816,3027 Webster St,3.5,3,2002,01/15/2016,2350000,37.798579,-122.43433,Cow Hollow,9,SingleFamily,1906,2670211,"2,151,200",94123,15071331
395,Address: 1546 McKinnon Avenue, San FranciscoSales price: 720000Sales date: 01/15/2016Bedrooms: 2Square feet: 1175Lot size: 2500,1546 Mckinnon Ave,2,4,1175,01/15/2016,720000,37.735509,-122.388068,Bayview,5,SingleFamily,1940,735339,"731,900",94124,15155964
396,Address: 478 Los Palmos Drive, San FranciscoSales price: 1200000Sales date: 01/15/2016Bedrooms: 3Square feet: 1450Lot size: 2644,478 Los Palmos Dr,1,3,1450,01/15/2016,1200000,37.734682,-122.452493,Westwood Highlands,6,SingleFamily,1947,1196619,"1,424,100",94127,15136362
398,Address: 367 Vernon Street, San FranciscoSales price: 1300000Sales date: 01/15/2016Bedrooms: 0Square feet: 1712Lot size: 2495,367 Vernon St,3,4,2100,01/15/2016,1300000,37.719099,-122.468325,Merced Heights,7,SingleFamily,1937,1042186,"874,200",94132,15190110
399,Address: 115 Colby Street, San FranciscoSales price: 950000Sales date: 01/15/2016Bedrooms: 0Square feet: 1753Lot size: 1750,115 Colby St,3,3,1753,01/15/2016,950000,37.728726,-122.413656,Portola,7,SingleFamily,1970,953825,"888,400",94134,15167235
404,Address: 138 Bronte Street, San FranciscoSales price: 1045000Sales date: 01/14/2016Bedrooms: 3Square feet: 1077Lot size: 1751,138 Bronte St,1,2,1077,01/14/2016,1045000,37.737634,-122.410499,Bernal Heights,6,SingleFamily,1950,1118463,"1,248,000",94110,15163088
405,Address: 1819 26th Avenue, San FranciscoSales price: 1000000Sales date: 01/14/2016Bedrooms: 2Square feet: 1175Lot size: 2996,1819 26th Ave,1,2,1175,01/14/2016,1000000,37.75348,-122.484273,Central Sunset,5,SingleFamily,1939,1205558,"1,125,700",94122,15112556
406,Address: 2421 Franklin Street, San FranciscoSales price: 2400000Sales date: 01/14/2016Bedrooms: 4Square feet: 2193Lot size: 3034,2421 Franklin St,4,4,2096,01/14/2016,2400000,37.79675,-122.425354,Pacific Heights,8,Condominium,1922,2765504,"1,910,700",94123,119685617
407,Address: 2865 Vallejo Street, San FranciscoSales price: 7450000Sales date: 01/14/2016Bedrooms: 3Square feet: 2230Lot size: 3436,2865 Vallejo St,2,3,2230,01/14/2016,7450000,37.79376,-122.444385,Pacific Heights,9,SingleFamily,1925,8086133,"1,910,700",94123,15080795
409,Address: 1455 Oakdale Avenue, San FranciscoSales price: 935000Sales date: 01/14/2016Bedrooms: 5Square feet: 1594Lot size: 2495,1455 Oakdale Ave,3,5,1594,01/14/2016,935000,37.732869,-122.387815,Bayview,8,SingleFamily,1964,769558,"731,900",94124,15156497
410,Address: 1920 Jones Street, San FranciscoSales price: 1950000Sales date: 01/14/2016Bedrooms: 3Square feet: 1640Lot size: 2100,1920 Jones St,2,3,1675,01/14/2016,1950000,37.799094,-122.41542,Russian Hill,6,Condominium,1906,2406148,"1,630,000",94133,15065979
418,Address: 231 Clinton Park, San FranciscoSales price: 1380000Sales date: 01/13/2016Bedrooms: 2Square feet: 1290Lot size: 2687,231 Clinton Park,1,2,1440,01/13/2016,1380000,37.768869,-122.425243,Mission,5,Condominium,1922,1370100,"1,185,400",94103,15142752
421,Address: 721 Delano Avenue, San FranciscoSales price: 700000Sales date: 01/13/2016Bedrooms: 1Square feet: 1210Lot size: 2121,721 Delano Ave,1,1,1210,01/13/2016,700000,37.719729,-122.445083,Outer Mission,5,SingleFamily,1930,642354,"814,200",94112,15188762
422,Address: 324 Chicago Way, San FranciscoSales price: 990000Sales date: 01/13/2016Bedrooms: 3Square feet: 1465Lot size: 3231,324 Chicago Way,1,3,1465,01/13/2016,990000,37.709611,-122.433129,Crocker Amazon,7,SingleFamily,1924,911446,"823,000",94112,15178315
423,Address: 2470 Broadway Street, San FranciscoSales price: 6500000Sales date: 01/13/2016Bedrooms: 6Square feet: 3851Lot size: 3781,2470 Broadway St,5,5,3851,01/13/2016,6500000,37.794209,-122.437789,Pacific Heights,13,SingleFamily,1910,7868171,"1,910,700",94115,15072536
424,Address: 528 34th Avenue, San FranciscoSales price: 2240000Sales date: 01/13/2016Bedrooms: 8Square feet: 4158Lot size: 3000,528 34th Ave,6,8,4158,01/13/2016,2240000,37.779053,-122.494007,Outer Richmond,15,Duplex,1987,2357494,"1,214,000",94121,15093589
425,Address: 2425 Lincoln Way, San FranciscoSales price: 1265000Sales date: 01/13/2016Bedrooms: 3Square feet: 1535Lot size: 2500,2425 Lincoln Way,1,2,1500,01/13/2016,1265000,37.764874,-122.484231,Central Sunset,6,SingleFamily,1923,1403499,"1,125,700",94122,15101792
426,Address: 2828 Divisadero Street, San FranciscoSales price: 8400000Sales date: 01/13/2016Bedrooms: 5Square feet: 3820Lot size: 3502,2828 Divisadero St,5.5,5,5590,01/13/2016,8400000,37.795785,-122.441671,Cow Hollow,11,SingleFamily,1912,10255025,"2,151,200",94123,15080661
427,Address: 2130 Quesada Avenue, San FranciscoSales price: 680000Sales date: 01/13/2016Bedrooms: 4Square feet: 995Lot size: 2500,2130 Quesada Ave,2,4,995,01/13/2016,680000,37.738125,-122.399345,Silver Terrace,5,SingleFamily,1944,676584,"736,700",94124,15156715
428,Address: 59 Manor Drive, San FranciscoSales price: 1250000Sales date: 01/13/2016Bedrooms: 3Square feet: 1575Lot size: 3009,59 Manor Dr,1.5,3,1575,01/13/2016,1250000,37.727581,-122.464761,Mount Davidson Manor,7,SingleFamily,1930,1324789,"1,378,600",94127,15142024
437,Address: 22 Liberty Street, San FranciscoSales price: 1389000Sales date: 01/12/2016Bedrooms: 0Square feet: 1291Lot size: 5750,22 Liberty St,1,3,1379,01/12/2016,1389000,37.75791,-122.421827,Mission,6,Condominium,1879,1410141,"1,185,400",94110,15145634
439,Address: 601 Capitol Avenue, San FranciscoSales price: 800000Sales date: 01/12/2016Bedrooms: 4Square feet: 2008Lot size: 3438,601 Capitol Ave,2,4,2008,01/12/2016,800000,37.715924,-122.459257,Oceanview,7,SingleFamily,1977,912149,"762,700",94112,15192957
440,Address: 1621 McAllister Street, San FranciscoSales price: 2400000Sales date: 01/12/2016Bedrooms: 7Square feet: 3974Lot size: 2840,1621 Mcallister St,2,7,3974,01/12/2016,2400000,37.777505,-122.438785,North Panhandle,12,Duplex,1900,2909727,"1,231,800",94115,15085561
442,Address: 554 46th Avenue, San FranciscoSales price: 665000Sales date: 01/12/2016Bedrooms: 0Square feet: 660Lot size: 644,554 46th Ave,1,2,830,01/12/2016,665000,37.778042,-122.506661,Outer Richmond,5,SingleFamily,1900,842718,"1,214,000",94121,15093047
443,Address: 12 Las Villas Court, San FranciscoSales price: 570000Sales date: 01/12/2016Bedrooms: 3Square feet: 1480Lot size: 1050,12 Las Villas Ct,3,3,1480,01/12/2016,570000,37.733425,-122.385585,Bayview,7,SingleFamily,1995,715042,"731,900",94124,15153434
445,Address: 620 29th Street, San FranciscoSales price: 1050000Sales date: 01/12/2016Bedrooms: 0Square feet: 1365Lot size: 2848,620 29th St,2,5,1365,01/12/2016,1050000,37.743503,-122.433974,Noe Valley,9,SingleFamily,1913,1562425,"1,782,000",94131,15200065
452,Address: 383 Missouri Street, San FranciscoSales price: 1310000Sales date: 01/11/2016Bedrooms: 2Square feet: 1625Lot size: 2500,383 Missouri St,1,2,1625,01/11/2016,1310000,37.761581,-122.396117,Potrero Hill,6,Condominium,1904,1536488,"1,277,600",94107,89239433
453,Address: 1250 Clay Street #306, San FranciscoSales price: 695000Sales date: 01/11/2016Bedrooms: 1Square feet: 541Lot size: 22394,1250 Clay St APT 306,1,1,541,01/11/2016,695000,37.793575,-122.41367,Nob Hill,3,Condominium,1950,554249,"1,459,200",94108,15067755
454,Address: 1177 California Street #1212, San FranciscoSales price: 1200000Sales date: 01/11/2016Bedrooms: 0Square feet: 1056Lot size: 31662,1177 California St APT 1212,1,1,1056,01/11/2016,1200000,37.791089,-122.413658,Downtown,3,Condominium,1978,1120826,"807,800",94108,15068433
455,Address: 1200 Gough Street #16D, San FranciscoSales price: 825000Sales date: 01/11/2016Bedrooms: 1Square feet: 900Lot size: 44676,1200 Gough St APT 16D,1,1,900,01/11/2016,825000,37.78482,-122.423994,Van Ness - Civic Center,4,Condominium,1966,842526,"855,500",94109,15077077
456,Address: 39 Bradford Street, San FranciscoSales price: 1250000Sales date: 01/11/2016Bedrooms: 0Square feet: 775Lot size: 1498,39 Bradford St,1,2,775,01/11/2016,1250000,37.742618,-122.409173,Bernal Heights,4,SingleFamily,1947,990518,"1,248,000",94110,15161560
457,Address: 111 Harold Avenue, San FranciscoSales price: 720000Sales date: 01/11/2016Bedrooms: 0Square feet: 1087Lot size: 1873,111 Harold Ave,1,2,1087,01/11/2016,720000,37.720294,-122.453327,Ingleside,4,SingleFamily,1947,641720,"814,200",94112,15189028
458,Address: 86 Restani Way, San FranciscoSales price: 1054000Sales date: 01/11/2016Bedrooms: 0Square feet: 2781Lot size: 2247,86 Restani Way,3.5,3,2781,01/11/2016,1054000,37.718283,-122.443689,Outer Mission,8,SingleFamily,1954,1096512,"814,200",94112,15191207
469,Address: 355 1st Street #1702, San FranciscoSales price: 1570000Sales date: 01/08/2016Bedrooms: 2Square feet: 1166Lot size: 38571,355 1st St UNIT 1702,2,2,1166,01/08/2016,1570000,37.787029,-122.3936,South Beach,4,Condominium,2004,1576063,"1,286,900",94105,64972695
471,Address: 88 King Street #103, San FranciscoSales price: 1370000Sales date: 01/08/2016Bedrooms: 2Square feet: 1348Lot size: 82157,88 King St APT 103,3,3,1466,01/08/2016,1370000,37.78063,-122.389635,South Beach,6,Condominium,2000,1527589,"1,286,900",94107,54854633
472,Address: 81 Frank Norris Street #504, San FranciscoSales price: 718000Sales date: 01/08/2016Bedrooms: 1Square feet: 723Lot size: 6909,81 Frank Norris St UNIT 504,1,1,800,01/08/2016,718000,37.789081,-122.420051,Downtown,4,Condominium,2007,767342,"807,800",94109,82785342
475,Address: 72 Crescent Avenue, San FranciscoSales price: 1625000Sales date: 01/08/2016Bedrooms: 3Square feet: 1705Lot size: 3123,72 Crescent Ave,3,4,3000,01/08/2016,1625000,37.734991,-122.42276,Bernal Heights,7,SingleFamily,1951,1616808,"1,248,000",94110,15164450
476,Address: 1316 Guerrero Street, San FranciscoSales price: 1706000Sales date: 01/08/2016Bedrooms: 6Square feet: 4000Lot size: 3123,1316-1318 Guerrero St,5,6,4000,01/08/2016,1706000,37.749991,-122.423045,Mission,14,Duplex,1925,2101275,"1,185,400",94110,15180756
477,Address: 3532 23rd Street, San FranciscoSales price: 1900000Sales date: 01/08/2016Bedrooms: 0Square feet: 1375Lot size: 2848,3532 23rd St,1,2,1375,01/08/2016,1900000,37.753856,-122.422349,Mission,10,SingleFamily,1900,1466310,"1,185,400",94110,15146712
478,Address: 1406 Golden Gate Avenue, San FranciscoSales price: 1200000Sales date: 01/08/2016Bedrooms: 3Square feet: 1628Lot size: 11243,1406 Golden Gate Ave,3,3,1628,01/08/2016,1200000,37.779515,-122.433995,Western Addition,6,Condominium,1885,1567139,"983,400",94115,15077543
480,Address: 1833 Laguna Street, San FranciscoSales price: 5500000Sales date: 01/08/2016Bedrooms: 0Square feet: 2718Lot size: 3436,1833 Laguna St,4.5,5,4400,01/08/2016,5500000,37.788072,-122.428971,Lower Pacific Heights,9,SingleFamily,1900,5243295,"1,178,700",94115,15075378
482,Address: 1576 Waller Street, San FranciscoSales price: 1495000Sales date: 01/08/2016Bedrooms: 3Square feet: 1668Lot size: 2500,1576 Waller St,1,3,1668,01/08/2016,1495000,37.768882,-122.45008,Haight-Ashbury,8,Condominium,1900,1379568,"1,369,500",94117,15086964
483,Address: 1558 45th Avenue, San FranciscoSales price: 930000Sales date: 01/08/2016Bedrooms: 2Square feet: 1000Lot size: 3000,1558 45th Ave,2,2,1370,01/08/2016,930000,37.757512,-122.504319,Outer Sunset,8,SingleFamily,1957,1009450,"1,031,800",94122,15107831
485,Address: 2165 Revere Avenue, San FranciscoSales price: 1040000Sales date: 01/08/2016Bedrooms: 2Square feet: 1125Lot size: 4400,2165 Revere Ave,1.5,3,1125,01/08/2016,1040000,37.737461,-122.400912,Silver Terrace,5,SingleFamily,1925,709660,"736,700",94124,15157319
488,Address: 95 Red Rock Way #303M, San FranciscoSales price: 530000Sales date: 01/08/2016Bedrooms: 0Square feet: 592Lot size: 6833,95 Red Rock Way APT 303M,1,0,592,01/08/2016,530000,37.746324,-122.441517,Diamond Heights,2,Condominium,1972,522263,"1,098,500",94131,15199299
490,Address: 270 Bright Street, San FranciscoSales price: 750000Sales date: 01/08/2016Bedrooms: 0Square feet: 1010Lot size: 2500,270 Bright St,1,2,1010,01/08/2016,750000,37.715614,-122.463238,Ingleside Heights,4,SingleFamily,1928,682958,"710,500",94132,15193805
500,Address: 1097 Howard Street #303, San FranciscoSales price: 975000Sales date: 01/07/2016Bedrooms: 0Square feet: 1056Lot size: 11695,1097 Howard St UNIT 303,1,1,1056,01/07/2016,975000,37.777996,-122.408912,South of Market,2,Condominium,1998,1052006,"975,700",94103,80756297
502,Address: 260 King Street #605, San FranciscoSales price: 1475000Sales date: 01/07/2016Bedrooms: 2Square feet: 1488Lot size: 213232,260 King St UNIT 605,2,2,1488,01/07/2016,1475000,37.777641,-122.393417,South of Market,4,Condominium,2004,1548707,"975,700",94107,69819618
507,Address: 930 Ashbury Street, San FranciscoSales price: 2278000Sales date: 01/07/2016Bedrooms: 0Square feet: 2058Lot size: 2996,930 Ashbury St,4,4,2510,01/07/2016,2278000,37.765123,-122.445719,Parnassus - Ashbury,10,SingleFamily,1917,2793185,"2,151,400",94117,15127215
509,Address: 133 Richardson Avenue, San FranciscoSales price: 2080000Sales date: 01/07/2016Bedrooms: 3Square feet: 2323Lot size: 2931,133 Richardson Ave,3,3,2323,01/07/2016,2080000,37.79989,-122.446839,Cow Hollow,6,SingleFamily,1939,4266420,"2,151,200",94123,15080144
510,Address: 3315 Pierce Street, San FranciscoSales price: 2500000Sales date: 01/07/2016Bedrooms: 0Square feet: 2000Lot size: 2500,3315 Pierce St,3.5,3,2255,01/07/2016,2500000,37.80065,-122.439786,Marina,7,SingleFamily,1925,3437198,"2,186,800",94123,15070728
517,Address: 601 Van Ness Avenue #201, San FranciscoSales price: 555000Sales date: 01/06/2016Bedrooms: 1Square feet: 750Lot size: 105806,601 Van Ness Ave APT 201,1,1,750,01/06/2016,555000,37.781386,-122.421406,Van Ness - Civic Center,3,Condominium,1982,604402,"855,500",94102,15077725
520,Address: 260 King Street #1009, San FranciscoSales price: 750000Sales date: 01/06/2016Bedrooms: 1Square feet: 823Lot size: 213232,260 King St UNIT 1009,1,1,823,01/06/2016,750000,37.777191,-122.393394,South of Market,3,Condominium,2004,812706,"975,700",94107,69819651
523,Address: 728 Alabama Street #105, San FranciscoSales price: 655000Sales date: 01/06/2016Bedrooms: 1Square feet: 642Lot size: 5722,728 Alabama St APT 105,1,1,642,01/06/2016,655000,37.760025,-122.412025,Mission,3,Condominium,1995,679113,"1,185,400",94110,80741613
525,Address: 50 Roscoe Street, San FranciscoSales price: 1735000Sales date: 01/06/2016Bedrooms: 0Square feet: 2150Lot size: 2247,50-52 Roscoe St,2,4,2150,01/06/2016,1735000,37.734268,-122.419017,Bernal Heights,10,MultiFamily2To4,1963,1496302,"1,248,000",94110,15164485
526,Address: 14 Stoneyford Avenue, San FranciscoSales price: 650000Sales date: 01/06/2016Bedrooms: 0Square feet: 1158Lot size: 2291,14 Stoneyford Ave,1,3,1158,01/06/2016,650000,37.730923,-122.421186,Excelsior,6,SingleFamily,1942,799134,"767,600",94112,15165953
527,Address: 324 Hanover Street, San FranciscoSales price: 700000Sales date: 01/06/2016Bedrooms: 2Square feet: 1325Lot size: 2663,324 Hanover St,1,2,1325,01/06/2016,700000,37.70932,-122.443403,Crocker Amazon,5,SingleFamily,1927,669644,"823,000",94112,15179514
529,Address: 1760 Ofarrell Street #18, San FranciscoSales price: 838000Sales date: 01/06/2016Bedrooms: 2Square feet: 1061Lot size: 22344,1760 Ofarrell St APT 18,2,2,1061,01/06/2016,838000,37.783415,-122.43399,Western Addition,5,Condominium,1984,941125,"983,400",94115,15076823
530,Address: 811 40th Avenue, San FranciscoSales price: 880000Sales date: 01/06/2016Bedrooms: 0Square feet: 1095Lot size: 2688,811 40th Ave,1,2,1095,01/06/2016,880000,37.773411,-122.500678,Outer Richmond,5,SingleFamily,1914,921916,"1,214,000",94121,15100204
535,Address: 938 Market Street, San FranciscoSales price: 760000Sales date: 01/05/2016Bedrooms: 1Square feet: 741Lot size: 5287,938-940 Market St,1,1,693,11/25/2009,310000,37.783908,-122.408889,Downtown,4,Condominium,2007,675023,"807,800",94102,89237745
539,Address: 632 Mississippi Street, San FranciscoSales price: 1420000Sales date: 01/05/2016Bedrooms: 0Square feet: 1100Lot size: 2495,632 Mississippi St,1,2,1100,01/05/2016,1420000,37.758382,-122.394495,Potrero Hill,5,SingleFamily,1922,1125336,"1,277,600",94107,15150841
540,Address: 7 Lee Avenue, San FranciscoSales price: 1100000Sales date: 01/05/2016Bedrooms: 0Square feet: 800Lot size: 1873,7 Lee Ave,3,2,1370,01/05/2016,1100000,37.718407,-122.454339,Ingleside,4,SingleFamily,1924,796210,"814,200",94112,15190821
541,Address: 2223 44th Avenue, San FranciscoSales price: 1325000Sales date: 01/05/2016Bedrooms: 0Square feet: 2121Lot size: 2996,2223 44th Ave,2,3,1747,01/05/2016,1325000,37.7451,-122.503034,Outer Parkside,9,SingleFamily,1939,1057428,"981,900",94116,15118565
544,Address: 1626 32nd Avenue, San FranciscoSales price: 1425000Sales date: 01/05/2016Bedrooms: 4Square feet: 2100Lot size: 3000,1626 32nd Ave,3,4,2100,01/05/2016,1425000,37.756819,-122.490297,Central Sunset,9,SingleFamily,1935,1327770,"1,125,700",94122,15108913
545,Address: 1387 14th Avenue, San FranciscoSales price: 1655000Sales date: 01/05/2016Bedrooms: 0Square feet: 1926Lot size: 2495,1387 14th Ave,2,4,1926,01/05/2016,1655000,37.762208,-122.471851,Inner Sunset,8,SingleFamily,1931,1356873,"1,357,900",94122,15102829
547,Address: 1765 15th Avenue, San FranciscoSales price: 2250000Sales date: 01/05/2016Bedrooms: 5Square feet: 3114Lot size: 3382,1765 15th Ave,3.5,5,3114,01/05/2016,2250000,37.755478,-122.472504,Golden Gate Heights,8,SingleFamily,1981,2203281,"1,476,600",94122,15109592
548,Address: 1243 Quesada Avenue, San FranciscoSales price: 610000Sales date: 01/05/2016Bedrooms: 0Square feet: 1250Lot size: 2500,1243 Quesada Ave,1,2,1250,01/05/2016,610000,37.728318,-122.383131,Bayview,7,SingleFamily,1927,608199,"731,900",94124,15153857
549,Address: 423 28th Street #201, San FranciscoSales price: 1589000Sales date: 01/05/2016Bedrooms: 0Square feet: 1875Lot size: 2850,423-425 28TH St #201,2,3,1875,01/05/2016,1589000,37.744745,-122.43187,Noe Valley,7,Condominium,1981,2119279,"1,782,000",94131,59780054
550,Address: 8200 Oceanview Terrace #204, San FranciscoSales price: 510000Sales date: 01/05/2016Bedrooms: 1Square feet: 688Lot size: 325629,8200 Oceanview Ter APT 204,1,1,688,01/05/2016,510000,37.71048,-122.467645,Ingleside Heights,3,Condominium,2002,523731,"710,500",94132,67090342
556,Address: 851 South Van Ness Avenue #104, San FranciscoSales price: 641000Sales date: 01/04/2016Bedrooms: 2Square feet: 1227Lot size: 13170,851 Van Ness Ave APT 104,2,2,1227,01/04/2016,641000,37.78352,-122.421356,Van Ness - Civic Center,3,Condominium,2002,1118435,"855,500",94109,59731574
557,Address: 54 Marston Avenue, San FranciscoSales price: 1650000Sales date: 01/04/2016Bedrooms: 3Square feet: 1644Lot size: 2813,54 Marston Ave,5,5,2500,01/04/2016,1650000,37.727716,-122.445802,Sunnyside,7,SingleFamily,1927,1634358,"1,038,200",94112,15140890
558,Address: 2151 Laguna Street #2, San FranciscoSales price: 4500000Sales date: 01/04/2016Bedrooms: 4Square feet: 2624Lot size: 8769,2151 Laguna St # 2,2,3,2624,01/04/2016,4500000,37.791114,-122.429586,Pacific Heights,7,Condominium,1919,3220249,"1,910,700",94115,15074335
559,Address: 28 Williams Avenue, San FranciscoSales price: 660000Sales date: 01/04/2016Bedrooms: 2Square feet: 1250Lot size: 1250,28 Williams Ave,2,2,1250,01/04/2016,660000,37.729497,-122.393183,Bayview,5,SingleFamily,1930,593699,"731,900",94124,15158905
560,Address: 304 Gold Mine Drive, San FranciscoSales price: 1651000Sales date: 01/04/2016Bedrooms: 0Square feet: 2104Lot size: 3197,304 Gold Mine Dr,3,5,2504,01/04/2016,1651000,37.740484,-122.438964,Diamond Heights,7,SingleFamily,1968,1844348,"1,098,500",94131,15199623
564,Address: 180 7th Street #408, San FranciscoSales price: 550000Sales date: 12/31/2015Bedrooms: 1Square feet: 470Lot size: 11374,180 7th St # 408,1,1,470,12/31/2015,550000,37.778082,-122.410082,South of Market,3,Condominium,1992,540858,"975,700",94103,15147378
569,Address: 961 San Bruno Avenue, San FranciscoSales price: 980000Sales date: 12/31/2015Bedrooms: 2Square feet: 1309Lot size: 1920,961 San Bruno Ave,2,2,1297,12/31/2015,980000,37.757433,-122.404508,Mission,6,SingleFamily,1927,1100483,"1,185,400",94110,15151012
572,Address: 591 27th Avenue, San FranciscoSales price: 897000Sales date: 12/31/2015Bedrooms: 2Square feet: 900Lot size: 1760,591 27th Ave,1,2,900,12/31/2015,897000,37.778299,-122.486969,Central Richmond,4,SingleFamily,1915,1006445,"1,485,300",94121,15093745
573,Address: 520 El Camino Del Mar, San FranciscoSales price: 6100000Sales date: 12/31/2015Bedrooms: 6Square feet: 4840Lot size: 6926,520 El Camino Del Mar,5.5,6,4840,12/31/2015,6100000,37.787975,-122.488862,Sea Cliff,12,SingleFamily,1926,8166551,"4,464,800",94121,15088722
575,Address: 19 Bridgeview Drive, San FranciscoSales price: 640000Sales date: 12/31/2015Bedrooms: 0Square feet: 1092Lot size: 2062,19 Bridgeview Dr,2,3,1092,12/31/2015,640000,37.7342,-122.394079,Silver Terrace,5,SingleFamily,1944,811298,"736,700",94124,15157054
576,Address: 446 Chenery Street, San FranciscoSales price: 1064000Sales date: 12/31/2015Bedrooms: 2Square feet: 977Lot size: 2500,446 Chenery St,1,1,977,12/31/2015,1064000,37.736154,-122.429739,Glen Park,5,SingleFamily,1911,1517423,"1,660,200",94131,15184670
578,Address: 114 Clearfield Drive, San FranciscoSales price: 1350000Sales date: 12/31/2015Bedrooms: 0Square feet: 1790Lot size: 3136,114 Clearfield Dr,2,3,1790,12/31/2015,1350000,37.731595,-122.491148,Lakeshore,7,SingleFamily,1951,1351895,"1,264,800",94132,15197844
579,Address: 1070 Green Street #1402, San FranciscoSales price: 2600000Sales date: 12/31/2015Bedrooms: 0Square feet: 0Lot size: 8721,1070 Green St APT 1402,2.5,3,2017,12/31/2015,2600000,37.798792,-122.416797,Russian Hill,6,Condominium,1963,3135441,"1,630,000",94133,15066036
581,Address: 1 Crescent Way #1402, San FranciscoSales price: 660000Sales date: 12/31/2015Bedrooms: 2Square feet: 1063Lot size: 42105,1 Crescent Way APT 1402,2,2,1063,12/31/2015,660000,37.71085,-122.390182,Bayview,5,Condominium,2001,611960,"731,900",94134,64972881
584,Address: 181 Ofarrell Street #514, San FranciscoSales price: 978000Sales date: 12/30/2015Bedrooms: 1Square feet: 1080Lot size: 18882,181 Ofarrell St STE 514,1.5,1,1080,12/30/2015,978000,37.78619,-122.40763,Downtown,5,MultiFamily2To4,2006,1012206,"807,800",94102,82785286
586,Address: 355 1st Street #1503, San FranciscoSales price: 1124500Sales date: 12/30/2015Bedrooms: 1Square feet: 795Lot size: 38571,355 1st St UNIT 1503,1,1,795,01/03/2016,1124500,37.787029,-122.3936,South Beach,3,Condominium,2004,1021145,"1,286,900",94105,64972682
587,Address: 355 1st Street #1602, San FranciscoSales price: 1500000Sales date: 12/30/2015Bedrooms: 2Square feet: 1166Lot size: 38571,355 1st St UNIT 1602,2,2,1239,12/30/2015,1500000,37.787029,-122.393638,South Beach,4,MultiFamily2To4,2004,1650793,"1,286,900",94105,64972688
588,Address: 2250 24th Street #319, San FranciscoSales price: 675000Sales date: 12/30/2015Bedrooms: 2Square feet: 809Lot size: 80224,2250 24th St APT 319,1,2,809,12/30/2015,675000,37.753905,-122.40202,Potrero Hill,4,Condominium,1989,715661,"1,277,600",94107,15152084
589,Address: 638 19th Street #10, San FranciscoSales price: 1525000Sales date: 12/30/2015Bedrooms: 3Square feet: 1467Lot size: 14761,638 19th St UNIT 10,2.5,3,1467,12/30/2015,1525000,37.762084,-122.389007,Central Waterfront - Dogpatch,5,Condominium,2007,1472569,"1,129,000",94107,79844821
591,Address: 270 Nevada Street, San FranciscoSales price: 2075000Sales date: 12/30/2015Bedrooms: 1Square feet: 810Lot size: 1750,270 Nevada St,4,3,2371,12/30/2015,2075000,37.738665,-122.411652,Bernal Heights,6,SingleFamily,1900,1886914,"1,248,000",94110,15162879
592,Address: 1988 Alemany Boulevard, San FranciscoSales price: 860000Sales date: 12/30/2015Bedrooms: 3Square feet: 1466Lot size: 1646,1988 Alemany Blvd,1,3,1466,12/30/2015,860000,37.72044,-122.43969,Mission Terrace,7,SingleFamily,1939,841301,"992,600",94112,15188349
593,Address: 445 Persia Avenue, San FranciscoSales price: 950000Sales date: 12/30/2015Bedrooms: 0Square feet: 1435Lot size: 2500,445 Persia Ave,1,3,1435,12/30/2015,950000,37.721458,-122.432181,Excelsior,6,MultiFamily2To4,1955,856570,"767,600",94112,15170822
594,Address: 1145 Cayuga Avenue, San FranciscoSales price: 1050000Sales date: 12/30/2015Bedrooms: 0Square feet: 1590Lot size: 2356,1145 Cayuga Ave,1,3,1590,12/30/2015,1050000,37.719885,-122.441105,Mission Terrace,6,SingleFamily,1941,957645,"992,600",94112,15188382
598,Address: 95 Red Rock Way #202M, San FranciscoSales price: 670000Sales date: 12/30/2015Bedrooms: 1Square feet: 830Lot size: 6833,95 Red Rock Way APT 202M,1,1,830,12/30/2015,670000,37.746339,-122.44152,Diamond Heights,3,Condominium,1972,688917,"1,098,500",94131,15199286
599,Address: 159 Glenview Drive, San FranciscoSales price: 760000Sales date: 12/30/2015Bedrooms: 2Square feet: 833Lot size: 3001,159 Glenview Dr,1,2,833,12/30/2015,760000,37.748824,-122.447752,Midtown Terrace,4,SingleFamily,1951,865762,"1,117,200",94131,15133056
602,Address: 1915 Diamond Street, San FranciscoSales price: 1800000Sales date: 12/30/2015Bedrooms: 0Square feet: 2200Lot size: 4316,1915 Diamond St,3,4,2400,12/29/2015,1800000,37.742141,-122.435111,Glen Park,6,SingleFamily,1910,2087545,"1,660,200",94131,2100850402
612,Address: 201 Harrison Street #407, San FranciscoSales price: 525000Sales date: 12/29/2015Bedrooms: 0Square feet: 410Lot size: 38449,201 Harrison St APT 407,1,0,410,12/29/2015,525000,37.787585,-122.39048,South Beach,1,Condominium,1991,548618,"1,286,900",94105,15148222
613,Address: 81 Lansing Street #410, San FranciscoSales price: 778000Sales date: 12/29/2015Bedrooms: 1Square feet: 855Lot size: 16800,81 Lansing St APT 410,1,1,855,12/29/2015,778000,37.785651,-122.39403,South Beach,4,Condominium,1995,947673,"1,286,900",94105,15147628
616,Address: 1177 California Street #423, San FranciscoSales price: 738000Sales date: 12/29/2015Bedrooms: 0Square feet: 706Lot size: 31662,1177 California St APT 423,1,0,706,12/29/2015,738000,37.791089,-122.413658,Downtown,2,Condominium,1978,759982,"807,800",94108,15068580
617,Address: 2311 Scott Street #1, San FranciscoSales price: 2720000Sales date: 12/29/2015Bedrooms: 3Square feet: 1986Lot size: 2990,2311 Scott St APT 1,2,3,1986,12/29/2015,2720000,37.79137,-122.439704,Pacific Heights,7,MultiFamily2To4,1965,2629569,"1,910,700",94115,69819930
618,Address: 430 Mangels Avenue, San FranciscoSales price: 1100000Sales date: 12/29/2015Bedrooms: 0Square feet: 1200Lot size: 2500,430 Mangels Ave,1,2,1200,12/29/2015,1100000,37.733308,-122.447346,Sunnyside,5,SingleFamily,1931,1174154,"1,038,200",94127,15137860
619,Address: 179 Flood Avenue, San FranciscoSales price: 1538000Sales date: 12/29/2015Bedrooms: 0Square feet: 968Lot size: 2809,179 Flood Ave,4,4,1900,12/29/2015,1538000,37.729648,-122.4438,Sunnyside,8,SingleFamily,1924,1893489,"1,038,200",94131,15139841
621,Address: 151 Everglade Drive, San FranciscoSales price: 1400000Sales date: 12/29/2015Bedrooms: 3Square feet: 1848Lot size: 3136,151 Everglade Dr,3,3,1858,12/29/2015,1400000,37.731504,-122.489116,Lakeshore,8,SingleFamily,1950,1432173,"1,264,800",94132,15197869
622,Address: 1101 Pacific Avenue #302, San FranciscoSales price: 1000000Sales date: 12/29/2015Bedrooms: 2Square feet: 1009Lot size: 4839,1101 Pacific Ave APT 302,2,2,1009,12/29/2015,1000000,37.795912,-122.413603,Nob Hill,4,Condominium,2000,1076950,"1,459,200",94133,35972022
624,Address: 1015 Goettingen Street, San FranciscoSales price: 880000Sales date: 12/29/2015Bedrooms: 0Square feet: 830Lot size: 1751,1015 Goettingen St,2,3,1900,12/29/2015,880000,37.719474,-122.403272,Visitacion Valley,8,SingleFamily,1954,980014,"707,100",94134,15172689
632,Address: 400 Beale Street #2506, San FranciscoSales price: 1198000Sales date: 12/28/2015Bedrooms: 0Square feet: 1120Lot size: 27581,400 Beale St APT 2506,2,2,1215,12/28/2015,1198000,37.78691,-122.390925,South Beach,5,Condominium,2002,1253307,"1,286,900",94105,80746381
646,Address: 178 Jules Avenue, San FranciscoSales price: 821500Sales date: 12/24/2015Bedrooms: 0Square feet: 1350Lot size: 2809,178 Jules Ave,1,3,1350,12/24/2015,821500,37.721438,-122.460928,Ingleside,6,SingleFamily,1946,746564,"814,200",94112,15189406
648,Address: 2801 Jackson Street #12, San FranciscoSales price: 1418000Sales date: 12/24/2015Bedrooms: 2Square feet: 1330Lot size: 6312,2801 Jackson St # 12,1,2,1330,12/24/2015,1418000,37.791415,-122.441445,Pacific Heights,5,Condominium,1906,1351924,"1,910,700",94115,15081273
650,Address: 1442 Grove Street #A, San FranciscoSales price: 675000Sales date: 12/24/2015Bedrooms: 1Square feet: 593Lot size: 3421,1442 Grove St # A,1,1,593,12/24/2015,675000,37.775894,-122.440467,North Panhandle,4,Condominium,1890,701276,"1,231,800",94117,114318108
652,Address: 1667 34th Avenue, San FranciscoSales price: 1050000Sales date: 12/24/2015Bedrooms: 0Square feet: 1350Lot size: 3000,1667 34th Ave,1,2,1350,12/24/2015,1050000,37.75601,-122.493047,Central Sunset,5,SingleFamily,1940,1090231,"1,125,700",94122,15108727
653,Address: 382 Surrey Street, San FranciscoSales price: 1900000Sales date: 12/24/2015Bedrooms: 3Square feet: 1625Lot size: 2953,382 Surrey St,2.5,3,1625,12/24/2015,1900000,37.735936,-122.438508,Glen Park,6,SingleFamily,1966,1831470,"1,660,200",94131,15184555
657,Address: 338 Spear Street #4C, San FranciscoSales price: 949000Sales date: 12/23/2015Bedrooms: 1Square feet: 799Lot size: 76210,338 Spear St UNIT 4C,1,1,799,12/23/2015,949000,37.789533,-122.390371,South Beach,4,Condominium,2009,967683,"1,286,900",94105,89240293
661,Address: 219 Brannan Street #1B, San FranciscoSales price: 1098000Sales date: 12/23/2015Bedrooms: 2Square feet: 876Lot size: 82966,219 Brannan St UNIT 1B,2,2,900,12/23/2015,1098000,37.782575,-122.390364,South Beach,4,Condominium,2000,1188253,"1,286,900",94107,52422775
662,Address: 1562 22nd Street, San FranciscoSales price: 1665000Sales date: 12/23/2015Bedrooms: 2Square feet: 2322Lot size: 2465,1562 22nd St,2,3,2542,12/23/2015,1665000,37.757671,-122.396586,Potrero Hill,6,Condominium,2006,1821732,"1,277,600",94107,79846075
663,Address: 1268 Lombard Street #2, San FranciscoSales price: 3195000Sales date: 12/23/2015Bedrooms: 2Square feet: 1691Lot size: 0,1268 Lombard St # 2,2,3,1860,12/23/2015,3195000,37.801884,-122.422424,Russian Hill,5,Condominium,2013,3044789,"1,630,000",94109,122063856
664,Address: 977 Guerrero Street, San FranciscoSales price: 2000000Sales date: 12/23/2015Bedrooms: 2Square feet: 1440Lot size: 0,977 Guerrero St,1,2,1440,12/23/2015,2000000,37.755558,-122.422897,Mission,6,Condominium,1900,1616829,"1,185,400",94110,119685912
665,Address: 2670 San Jose Avenue, San FranciscoSales price: 756000Sales date: 12/23/2015Bedrooms: 0Square feet: 1001Lot size: 2500,2670 San Jose Ave,1,3,1001,12/23/2015,756000,37.714831,-122.451887,Oceanview,4,SingleFamily,1949,745570,"762,700",94112,15192647
666,Address: 2 Northwood Drive, San FranciscoSales price: 1800000Sales date: 12/23/2015Bedrooms: 0Square feet: 1932Lot size: 5549,2 Northwood Dr,2,3,1960,12/23/2015,1800000,37.72982,-122.456873,Westwood Park,6,SingleFamily,1924,1747483,"1,215,700",94112,15139010
668,Address: 83 Seward Street, San FranciscoSales price: 2100000Sales date: 12/23/2015Bedrooms: 0Square feet: 2650Lot size: 2622,83 Seward St,2,3,2650,12/23/2015,2100000,37.758694,-122.440807,Eureka Valley - Dolores Heights - Castro,8,SingleFamily,1929,2112221,"1,744,100",94114,15129565
669,Address: 1059 Noe Street, San FranciscoSales price: 2495000Sales date: 12/23/2015Bedrooms: 3Square feet: 2545Lot size: 2269,1059 Noe St,2.5,3,2545,12/23/2015,2495000,37.752026,-122.431666,Noe Valley,8,SingleFamily,1912,2532954,"1,782,000",94114,15147213
670,Address: 1310 Scott Street #40, San FranciscoSales price: 958000Sales date: 12/23/2015Bedrooms: 3Square feet: 1270Lot size: 75086,1310 Scott St # 40,2,3,1270,12/23/2015,958000,37.78228,-122.43682,Western Addition,6,Condominium,1986,963058,"983,400",94115,15077403
671,Address: 2287 43rd Avenue, San FranciscoSales price: 968000Sales date: 12/23/2015Bedrooms: 0Square feet: 1000Lot size: 2060,2287 43rd Ave,2,3,1331,12/23/2015,968000,37.744054,-122.50182,Outer Parkside,5,SingleFamily,1941,1132979,"981,900",94116,15118633
672,Address: 2195 28th Avenue, San FranciscoSales price: 1350000Sales date: 12/23/2015Bedrooms: 2Square feet: 2260Lot size: 2375,2195 28th Ave,3,4,2260,12/23/2015,1350000,37.746487,-122.48589,Parkside,9,SingleFamily,1939,1336525,"1,112,900",94116,15117639
674,Address: 2920 Anza Street, San FranciscoSales price: 310000Sales date: 12/23/2015Bedrooms: 4Square feet: 2102Lot size: 2666,2920 Anza St,2,4,2102,12/23/2015,310000,37.778636,-122.479699,Central Richmond,11,SingleFamily,1920,1998218,"1,485,300",94121,15093965
675,Address: 78 22nd Avenue, San FranciscoSales price: 4300000Sales date: 12/23/2015Bedrooms: 4Square feet: 4017Lot size: 3001,78 22nd Ave,4.5,4,4017,12/23/2015,4300000,37.786394,-122.481641,Lake,11,SingleFamily,1907,4505020,"2,244,500",94121,15089097
676,Address: 1727 29th Avenue, San FranciscoSales price: 1880000Sales date: 12/23/2015Bedrooms: 3Square feet: 2420Lot size: 3000,1727 29th Ave,3.5,4,2580,12/23/2015,1880000,37.755068,-122.487595,Central Sunset,8,SingleFamily,1939,1515578,"1,125,700",94122,15110823
680,Address: 1459 Thomas Avenue, San FranciscoSales price: 655000Sales date: 12/23/2015Bedrooms: 3Square feet: 1950Lot size: 2500,1459-1461 Thomas Ave,3,6,1950,12/23/2015,655000,37.728719,-122.388835,Bayview,9,MultiFamily2To4,1900,894702,"731,900",94124,15154183
681,Address: 646 Los Palmos Drive, San FranciscoSales price: 1360000Sales date: 12/23/2015Bedrooms: 5Square feet: 2956Lot size: 3027,646 Los Palmos Dr,3,5,2956,12/23/2015,1360000,37.735214,-122.456586,Westwood Highlands,8,SingleFamily,1979,1763346,"1,424,100",94127,15136476
682,Address: 1231 Bosworth Street, San FranciscoSales price: 899000Sales date: 12/23/2015Bedrooms: 1Square feet: 600Lot size: 2661,1231 Bosworth St,1,1,600,12/23/2015,899000,37.735495,-122.441225,Glen Park,4,SingleFamily,1910,1095960,"1,660,200",94131,15184501
683,Address: 567 27th Street #3, San FranciscoSales price: 1400000Sales date: 12/23/2015Bedrooms: 3Square feet: 1600Lot size: 2850,567 27th St # 3,2,3,1600,12/23/2015,1400000,37.746306,-122.432752,Noe Valley,5,Condominium,1989,1529596,"1,782,000",94131,15182315
685,Address: 74 Newburg Street, San FranciscoSales price: 2250000Sales date: 12/23/2015Bedrooms: 4Square feet: 1368Lot size: 1598,74 Newburg St,2,4,1625,12/23/2015,2250000,37.745818,-122.434713,Noe Valley,10,SingleFamily,1941,2158429,"1,782,000",94131,15182288
686,Address: 1381 Sanchez Street, San FranciscoSales price: 2600000Sales date: 12/23/2015Bedrooms: 4Square feet: 2041Lot size: 1999,1381 Sanchez St,3,4,2000,12/23/2015,2600000,37.747076,-122.428941,Noe Valley,7,SingleFamily,1900,2436438,"1,782,000",94131,15182023
695,Address: 425 1st Street #802, San FranciscoSales price: 1340000Sales date: 12/22/2015Bedrooms: 2Square feet: 1309Lot size: 56024,425 1st St UNIT 802,2,2,1309,12/22/2015,1340000,37.786041,-122.392654,South Beach,4,Townhouse,2008,1639298,"1,286,900",94105,82786028
705,Address: 4647 25th Street, San FranciscoSales price: 1450000Sales date: 12/22/2015Bedrooms: 3Square feet: 2041Lot size: 2214,4647 25th St,2.5,3,2041,12/22/2015,1450000,37.749075,-122.441235,Noe Valley,7,Condominium,1978,1654110,"1,782,000",94114,15181104
706,Address: 350 Eureka Street, San FranciscoSales price: 2400000Sales date: 12/22/2015Bedrooms: 3Square feet: 1758Lot size: 3250,350 Eureka St,2,4,1720,12/22/2015,2400000,37.756462,-122.438189,Eureka Valley - Dolores Heights - Castro,7,SingleFamily,1910,2401928,"1,744,100",94114,15130317
707,Address: 3100 Washington Street #6, San FranciscoSales price: 825000Sales date: 12/22/2015Bedrooms: 1Square feet: 808Lot size: 5776,3100 Washington St #6,1,1,808,12/22/2015,825000,37.79053,-122.444565,Pacific Heights,3,Condominium,1964,824656,"1,910,700",94115,15081395
708,Address: 1880 Steiner Street #101, San FranciscoSales price: 1350000Sales date: 12/22/2015Bedrooms: 2Square feet: 1332Lot size: 17706,1880 Steiner St APT 101,3,2,1332,12/22/2015,1350000,37.786575,-122.43472,Lower Pacific Heights,5,Condominium,1999,1352361,"1,178,700",94115,15075714
709,Address: 3016 Sacramento Street, San FranciscoSales price: 1853000Sales date: 12/22/2015Bedrooms: 2Square feet: 1408Lot size: 3511,3016 Sacramento St,1.5,2,1408,12/22/2015,1853000,37.78897,-122.442995,Pacific Heights,5,Condominium,1890,1584134,"1,910,700",94115,15082108
711,Address: 2007 46th Avenue, San FranciscoSales price: 905000Sales date: 12/22/2015Bedrooms: 0Square feet: 1300Lot size: 1746,2007 46th Ave,2,3,1300,12/22/2015,905000,37.749009,-122.505371,Outer Parkside,6,SingleFamily,1940,829440,"981,900",94116,15116598
712,Address: 2555 28th Avenue, San FranciscoSales price: 1010000Sales date: 12/22/2015Bedrooms: 0Square feet: 1360Lot size: 2996,2555 28th Ave,2,4,1360,12/22/2015,1010000,37.739715,-122.485461,Parkside,7,SingleFamily,1910,970987,"1,112,900",94116,15123561
714,Address: 790 7th Avenue #104, San FranciscoSales price: 600000Sales date: 12/22/2015Bedrooms: 2Square feet: 560Lot size: 7411,790 7th Ave APT 104,1,2,560,12/22/2015,600000,37.773831,-122.464603,Inner Richmond,4,Condominium,1981,621722,"1,685,300",94118,15098770
715,Address: 2845 Noriega Street, San FranciscoSales price: 1230000Sales date: 12/22/2015Bedrooms: 3Square feet: 2180Lot size: 2931,2845 Noriega St,2.5,3,2180,12/22/2015,1230000,37.75325,-122.494457,Central Sunset,6,SingleFamily,1947,1200446,"1,125,700",94122,15113076
716,Address: 3835 Scott Street #105, San FranciscoSales price: 1125000Sales date: 12/22/2015Bedrooms: 2Square feet: 1034Lot size: 8465,3835 Scott St APT 105,1,1,1118,12/22/2015,1125000,37.805235,-122.442515,Marina,4,Condominium,1928,1180313,"2,186,800",94123,15079585
718,Address: 6 Longview Court, San FranciscoSales price: 955000Sales date: 12/22/2015Bedrooms: 0Square feet: 939Lot size: 2774,6 Longview Ct,1,2,939,12/22/2015,955000,37.748307,-122.449855,Midtown Terrace,4,SingleFamily,1958,947144,"1,117,200",94131,15131992
719,Address: 232 Bemis Street, San FranciscoSales price: 1085000Sales date: 12/22/2015Bedrooms: 0Square feet: 1000Lot size: 3497,232 Bemis St,1,2,1000,12/22/2015,1085000,37.736524,-122.431895,Glen Park,5,SingleFamily,1904,1093773,"1,660,200",94131,15200386
722,Address: 87 Clearfield Drive, San FranciscoSales price: 1360000Sales date: 12/22/2015Bedrooms: 0Square feet: 1386Lot size: 3184,87 Clearfield Dr,2,3,1386,12/22/2015,1360000,37.732345,-122.491719,Lakeshore,6,SingleFamily,1951,1271520,"1,264,800",94132,15197693
729,Address: 23 Rodgers Street, San FranciscoSales price: 625000Sales date: 12/21/2015Bedrooms: 1Square feet: 538Lot size: 0,23 Rodgers St,1,1,538,12/21/2015,625000,37.775309,-122.409205,South of Market,3,Condominium,1908,651735,"975,700",94103,119685619
730,Address: 38 Bryant Street #606, San FranciscoSales price: 650000Sales date: 12/21/2015Bedrooms: 0Square feet: 582Lot size: 32017,38 Bryant St APT 606,1,1,582,12/21/2015,650000,37.787466,-122.38898,South Beach,2,Condominium,1994,703119,"1,286,900",94105,15148444
732,Address: 66 Cleary Court #1408, San FranciscoSales price: 895000Sales date: 12/21/2015Bedrooms: 3Square feet: 1106Lot size: 65376,66 Cleary Ct APT 1408,2,2,1106,12/21/2015,895000,37.784298,-122.427058,Western Addition,5,Condominium,1963,962891,"983,400",94109,15076978
733,Address: 130 Vienna Street, San FranciscoSales price: 950000Sales date: 12/21/2015Bedrooms: 4Square feet: 1853Lot size: 2500,130 Vienna St,3,4,1853,12/21/2015,950000,37.726299,-122.426347,Excelsior,6,SingleFamily,1907,943708,"767,600",94112,15168004
734,Address: 1858 47th Avenue, San FranciscoSales price: 895000Sales date: 12/21/2015Bedrooms: 0Square feet: 1135Lot size: 3000,1858 47th Ave,2,3,1135,12/21/2015,895000,37.751825,-122.506072,Outer Sunset,5,SingleFamily,1958,946088,"1,031,800",94122,15113584
735,Address: 59 Rico Way, San FranciscoSales price: 2550000Sales date: 12/21/2015Bedrooms: 0Square feet: 1675Lot size: 2500,59 Rico Way,1.5,3,1675,12/21/2015,2550000,37.804909,-122.43965,Marina,6,SingleFamily,1925,3215227,"2,186,800",94123,15069883
737,Address: 3001 Castro Street, San FranciscoSales price: 1695000Sales date: 12/21/2015Bedrooms: 2Square feet: 2105Lot size: 2657,3001 Castro St,3,4,2755,12/21/2015,1695000,37.735783,-122.432356,Glen Park,8,SingleFamily,1927,2232641,"1,660,200",94131,15185002
739,Address: 601 Van Ness Avenue #78, San FranciscoSales price: 810000Sales date: 12/18/2015Bedrooms: 2Square feet: 952Lot size: 105806,601 Van Ness Ave APT 78,2,2,952,12/18/2015,810000,37.781386,-122.421406,Van Ness - Civic Center,5,Condominium,1982,831870,"855,500",94102,15077602
741,Address: 270 Valencia Street #503, San FranciscoSales price: 890000Sales date: 12/18/2015Bedrooms: 2Square feet: 747Lot size: 9578,270 Valencia St APT 503,1,2,747,12/18/2015,890000,37.76852,-122.422592,Mission,3,Condominium,2005,888398,"1,185,400",94103,69820025
744,Address: 1177 California Street #702, San FranciscoSales price: 665000Sales date: 12/18/2015Bedrooms: 1Square feet: 511Lot size: 31662,1177 California St APT 702,1,1,511,12/18/2015,665000,37.791089,-122.413658,Downtown,2,Condominium,1978,590121,"807,800",94108,15068514
747,Address: 1438 Green Street #5A, San FranciscoSales price: 1278000Sales date: 12/18/2015Bedrooms: 2Square feet: 1206Lot size: 17413,1438 Green St UNIT 5A,2,2,1206,12/18/2015,1278000,37.798116,-122.42288,Russian Hill,4,Condominium,1998,1367065,"1,630,000",94109,15072128
748,Address: 1080 Sutter Street #1001, San FranciscoSales price: 1450000Sales date: 12/18/2015Bedrooms: 3Square feet: 1248Lot size: 0,1080 Sutter St APT 1001,2,3,1273,12/18/2015,1450000,37.788066,-122.418065,Downtown,4,Condominium,2014,1438990,"807,800",94109,123174904
749,Address: 249 Mullen Avenue, San FranciscoSales price: 1025000Sales date: 12/18/2015Bedrooms: 0Square feet: 1275Lot size: 1746,249 Mullen Ave,2,2,1275,12/18/2015,1025000,37.746969,-122.407362,Bernal Heights,5,SingleFamily,1907,1156792,"1,248,000",94110,15160348
751,Address: 1049 Dolores Street #4, San FranciscoSales price: 1266000Sales date: 12/18/2015Bedrooms: 2Square feet: 904Lot size: 4246,1049 Dolores St APT 4,1,2,904,12/18/2015,1266000,37.752658,-122.424819,Mission,3,Condominium,1960,1170155,"1,185,400",94110,89236856
753,Address: 221 Flood Avenue, San FranciscoSales price: 1405000Sales date: 12/18/2015Bedrooms: 0Square feet: 1380Lot size: 2809,221 Flood Ave,6,9,5000,12/18/2015,1405000,37.729648,-122.444867,Sunnyside,7,SingleFamily,1900,1965458,"1,038,200",94112,15139810
755,Address: 533 Elizabeth Street, San FranciscoSales price: 1880000Sales date: 12/18/2015Bedrooms: 4Square feet: 1744Lot size: 2850,533 Elizabeth St,3,4,1744,12/18/2015,1880000,37.751929,-122.432815,Noe Valley,7,SingleFamily,1955,2541253,"1,782,000",94114,15147285
756,Address: 419 Hill Street, San FranciscoSales price: 2500000Sales date: 12/18/2015Bedrooms: 3Square feet: 1755Lot size: 2850,419 Hill St,2,3,2000,12/18/2015,2500000,37.755283,-122.430545,Eureka Valley - Dolores Heights - Castro,7,SingleFamily,1908,3077875,"1,744,100",94114,15146224
757,Address: 2559 44th Avenue, San FranciscoSales price: 625000Sales date: 12/18/2015Bedrooms: 2Square feet: 1214Lot size: 3000,2559 44th Ave,1,2,1214,12/18/2015,625000,37.738891,-122.502597,Outer Parkside,5,SingleFamily,1945,615604,"981,900",94116,15124281
758,Address: 2178 22nd Avenue, San FranciscoSales price: 1438000Sales date: 12/18/2015Bedrooms: 3Square feet: 1518Lot size: 2996,2178 22nd Ave,3,3,1518,12/18/2015,1438000,37.747074,-122.478867,Parkside,6,SingleFamily,1928,1166743,"1,112,900",94116,15117892
761,Address: 801 42nd Avenue, San FranciscoSales price: 1460000Sales date: 12/18/2015Bedrooms: 3Square feet: 2730Lot size: 2250,801 42nd Ave,3,3,2730,12/18/2015,1460000,37.773449,-122.502803,Outer Richmond,8,SingleFamily,1923,1445232,"1,214,000",94121,15100309
763,Address: 1700 14th Avenue, San FranciscoSales price: 760000Sales date: 12/18/2015Bedrooms: 3Square feet: 1756Lot size: 2078,1700 14th Ave,3,3,1756,12/18/2015,760000,37.756259,-122.470752,Golden Gate Heights,7,SingleFamily,1978,1546338,"1,476,600",94122,15111486
765,Address: 1343 31st Avenue, San FranciscoSales price: 1250000Sales date: 12/18/2015Bedrooms: 3Square feet: 1886Lot size: 3000,1343 31st Ave,2,3,1886,12/18/2015,1250000,37.762152,-122.490254,Central Sunset,6,SingleFamily,1934,1326940,"1,125,700",94122,15103435
766,Address: 2601 Lawton Street, San FranciscoSales price: 1250000Sales date: 12/18/2015Bedrooms: 0Square feet: 1450Lot size: 2060,2601 Lawton St,1,3,1450,12/18/2015,1250000,37.757201,-122.490916,Central Sunset,6,SingleFamily,1942,1143183,"1,125,700",94122,15108819
767,Address: 1440 La Playa Street, San FranciscoSales price: 1303500Sales date: 12/18/2015Bedrooms: 0Square feet: 873Lot size: 2996,1440 La Playa St,2,3,1313,12/18/2015,1303500,37.759503,-122.508756,Outer Sunset,6,SingleFamily,1900,1619617,"1,031,800",94122,15104164
768,Address: 2953 Broderick Street, San FranciscoSales price: 3000000Sales date: 12/18/2015Bedrooms: 2Square feet: 1876Lot size: 1637,2953 Broderick St,2.5,2,1876,12/18/2015,3000000,37.797633,-122.444344,Cow Hollow,6,SingleFamily,1923,3179756,"2,151,200",94123,15080315
770,Address: 27 Gaviota Way, San FranciscoSales price: 1750000Sales date: 12/18/2015Bedrooms: 2Square feet: 1252Lot size: 2509,27 Gaviota Way,3,3,2155,12/18/2015,1750000,37.739232,-122.44758,Miraloma Park,5,SingleFamily,1942,1476349,"1,250,700",94127,15134945
771,Address: 5 Red Rock Way #75, San FranciscoSales price: 900000Sales date: 12/18/2015Bedrooms: 3Square feet: 0Lot size: 4,5 Red Rock Way # 75,2,3,1310,12/18/2015,900000,37.74598,-122.442612,Diamond Heights,6,Condominium,1964,926830,"1,098,500",94131,15198984
772,Address: 227 Delta Street, San FranciscoSales price: 642000Sales date: 12/18/2015Bedrooms: 3Square feet: 825Lot size: 1498,227 Delta St,1,3,825,12/18/2015,642000,37.71541,-122.408311,Visitacion Valley,4,SingleFamily,1958,621768,"707,100",94134,15173656
773,Address: 156 Mary Teresa Street, San FranciscoSales price: 800000Sales date: 12/18/2015Bedrooms: 2Square feet: 1207Lot size: 0,156 Mary Teresa St,2,2,1207,12/18/2015,800000,37.713792,-122.398735,Little Hollywood,4,Condominium,2008,776466,"757,700",94134,114314023
775,Address: 131 Brussels Street, San FranciscoSales price: 1255000Sales date: 12/18/2015Bedrooms: 0Square feet: 1750Lot size: 2761,131 Brussels St,3,4,2269,12/18/2015,1255000,37.730359,-122.406597,Portola,6,SingleFamily,1916,1193728,"888,400",94134,15167071
783,Address: 557 Birch Street, San FranciscoSales price: 1575000Sales date: 12/17/2015Bedrooms: 0Square feet: 1635Lot size: 1500,557 Birch St,3,3,1635,12/17/2015,1575000,37.777827,-122.42579,Hayes Valley,10,SingleFamily,2001,1668248,"1,224,800",94102,59700133
784,Address: 643 Natoma Street, San FranciscoSales price: 875000Sales date: 12/17/2015Bedrooms: 2Square feet: 830Lot size: 0,643A Natoma St # A,1,2,887,07/16/2014,725000,37.777526,-122.410789,South of Market,5,Condominium,1910,851282,"975,700",94103,123597664
786,Address: 281 Clinton Park, San FranciscoSales price: 1300000Sales date: 12/17/2015Bedrooms: 2Square feet: 1532Lot size: 0,281 Clinton Park,1,3,1532,12/17/2015,1300000,37.768856,-122.426261,Mission,6,Condominium,1916,1480952,"1,185,400",94103,119685946
787,Address: 765 Market Street #31H, San FranciscoSales price: 2800000Sales date: 12/17/2015Bedrooms: 2Square feet: 1434Lot size: 60150,765 Market St APT 31H,3,2,1434,12/17/2015,2800000,37.78622,-122.40431,Yerba Buena,5,Condominium,2001,2641509,"1,006,900",94103,63197354
788,Address: 188 Minna Street #28B, San FranciscoSales price: 2850000Sales date: 12/17/2015Bedrooms: 2Square feet: 1760Lot size: 33056,188 Minna St APT 28B,2.5,2,1740,12/17/2015,2850000,37.786289,-122.401374,Yerba Buena,5,Condominium,2005,3175738,"1,006,900",94105,80735111
790,Address: 540 Texas Street, San FranciscoSales price: 2162500Sales date: 12/17/2015Bedrooms: 0Square feet: 975Lot size: 2495,540 Texas St,4,2,1700,12/17/2015,2162500,37.759462,-122.39557,Potrero Hill,5,SingleFamily,1926,1870505,"1,277,600",94107,15150777
792,Address: 437 London Street, San FranciscoSales price: 760000Sales date: 12/17/2015Bedrooms: 2Square feet: 900Lot size: 2495,437 London St,1,2,900,12/17/2015,760000,37.722014,-122.435432,Excelsior,6,SingleFamily,1925,691756,"767,600",94112,15171058
793,Address: 528 Miramar Avenue, San FranciscoSales price: 918000Sales date: 12/17/2015Bedrooms: 2Square feet: 1328Lot size: 3798,528 Miramar Ave,1,2,1328,12/17/2015,918000,37.726323,-122.457891,Westwood Park,5,SingleFamily,1919,999148,"1,215,700",94112,15140802
795,Address: 1326 Lyon Street, San FranciscoSales price: 945000Sales date: 12/17/2015Bedrooms: 2Square feet: 1181Lot size: 3431,1326 Lyon St,1.5,2,1300,12/17/2015,945000,37.783218,-122.444229,Lower Pacific Heights,5,Condominium,1906,967626,"1,178,700",94115,89238425
796,Address: 1480 Golden Gate Avenue, San FranciscoSales price: 1809000Sales date: 12/17/2015Bedrooms: 0Square feet: 0Lot size: 4000,1480 Golden Gate Ave,2.5,4,2151,12/17/2015,1809000,37.779426,-122.434875,Western Addition,8,Condominium,1900,1853668,"983,400",94115,116157304
797,Address: 2076 14th Avenue, San FranciscoSales price: 1280000Sales date: 12/17/2015Bedrooms: 0Square feet: 1374Lot size: 3589,2076 14th Ave,1,2,1374,12/17/2015,1280000,37.749428,-122.470497,Golden Gate Heights,6,SingleFamily,1941,1013309,"1,476,600",94116,15115459
799,Address: 539 44th Avenue, San FranciscoSales price: 998500Sales date: 12/17/2015Bedrooms: 3Square feet: 1290Lot size: 3000,539 44th Ave,1,2,1290,12/17/2015,998500,37.778322,-122.505364,Outer Richmond,6,SingleFamily,1922,1028598,"1,214,000",94121,15093075
800,Address: 1555 21st Avenue, San FranciscoSales price: 1100000Sales date: 12/17/2015Bedrooms: 3Square feet: 1204Lot size: 3000,1555 21st Ave,2,2,1204,12/17/2015,1100000,37.758688,-122.479261,Central Sunset,5,SingleFamily,1926,1078248,"1,125,700",94122,15106778
801,Address: 1383 29th Avenue, San FranciscoSales price: 1175000Sales date: 12/17/2015Bedrooms: 0Square feet: 1475Lot size: 2500,1383 29th Ave,2,4,1475,12/17/2015,1175000,37.761563,-122.488023,Central Sunset,7,SingleFamily,1941,1143222,"1,125,700",94122,15103364
805,Address: 1783 Newcomb Avenue, San FranciscoSales price: 680000Sales date: 12/17/2015Bedrooms: 2Square feet: 1385Lot size: 2500,1783 Newcomb Ave,1,2,1385,12/17/2015,680000,37.736956,-122.393362,Bayview,6,SingleFamily,1925,579868,"731,900",94124,15156278
806,Address: 1401 Shafter Avenue, San FranciscoSales price: 755000Sales date: 12/17/2015Bedrooms: 2Square feet: 1412Lot size: 2495,1401 Shafter Ave,2,2,1412,12/17/2015,755000,37.728789,-122.387291,Bayview,5,SingleFamily,1929,756205,"731,900",94124,15154015
815,Address: 142 Russ Street #5, San FranciscoSales price: 1475000Sales date: 12/16/2015Bedrooms: 2Square feet: 2198Lot size: 4979,142 Russ St STE 5,2,2,2198,12/20/2015,1475000,37.778152,-122.407806,South of Market,4,Condominium,1999,1603543,"975,700",94103,80734665
816,Address: 6 Mint Plaza #702A, San FranciscoSales price: 2550000Sales date: 12/16/2015Bedrooms: 3Square feet: 1670Lot size: 5738,6 Mint Plz APT 702A,3,3,1670,12/16/2015,2550000,37.78308,-122.407541,South of Market,6,Condominium,1900,2268558,"975,700",94103,89240438
819,Address: 2080 3rd Street #8, San FranciscoSales price: 890000Sales date: 12/16/2015Bedrooms: 1Square feet: 928Lot size: 3363,2080 3rd St APT 8,2,1,998,12/17/2015,875000,37.763302,-122.3891,Central Waterfront - Dogpatch,3,Condominium,1998,986153,"1,129,000",94107,80732173
821,Address: 555 4th Street #513, San FranciscoSales price: 1180000Sales date: 12/16/2015Bedrooms: 2Square feet: 1177Lot size: 63237,555 4th St UNIT 513,2,2,1177,12/16/2015,1180000,37.779422,-122.396712,South of Market,5,Condominium,2006,1225684,"975,700",94107,79846666
823,Address: 650 Delancey Street #203, San FranciscoSales price: 2175000Sales date: 12/16/2015Bedrooms: 0Square feet: 1619Lot size: 61922,650 Delancey St APT 203,2,2,1619,12/16/2015,2175000,37.782775,-122.389686,South Beach,3,Condominium,1996,2033936,"1,286,900",94107,80735775
824,Address: 1945 Washington Street #411, San FranciscoSales price: 665000Sales date: 12/16/2015Bedrooms: 1Square feet: 653Lot size: 17557,1945 Washington St APT 411,1,1,653,12/16/2015,665000,37.792472,-122.425281,Pacific Heights,3,Condominium,1987,723213,"1,910,700",94109,15074158
826,Address: 1143 Naples Street, San FranciscoSales price: 950000Sales date: 12/16/2015Bedrooms: 5Square feet: 3034Lot size: 3205,1143 Naples St,3,5,3034,12/16/2015,950000,37.712673,-122.436874,Crocker Amazon,9,SingleFamily,1920,1235649,"823,000",94112,15178123
827,Address: 130 Shakespeare Street, San FranciscoSales price: 1000000Sales date: 12/16/2015Bedrooms: 2Square feet: 740Lot size: 2500,130 Shakespeare St,14,7,1308,12/23/2015,1000000,37.708635,-122.462835,Outer Mission,7,SingleFamily,2015,804491,"814,200",94112,15196201
829,Address: 559 21st Avenue, San FranciscoSales price: 1250000Sales date: 12/16/2015Bedrooms: 0Square feet: 1400Lot size: 3000,559 21st Ave,1,2,1400,12/16/2015,1250000,37.77724,-122.480556,Central Richmond,5,SingleFamily,1918,1178840,"1,485,300",94121,15095382
830,Address: 1706 12th Avenue, San FranciscoSales price: 1500000Sales date: 12/16/2015Bedrooms: 4Square feet: 2739Lot size: 2021,1706 12th Ave,2,4,1861,12/16/2015,1500000,37.75624,-122.468725,Inner Sunset,8,SingleFamily,1938,1439647,"1,357,900",94122,15111575
832,Address: 71 Los Palmos Drive, San FranciscoSales price: 1080000Sales date: 12/16/2015Bedrooms: 3Square feet: 1278Lot size: 2208,71 Los Palmos Dr,1.5,3,1278,12/16/2015,1080000,37.734774,-122.447415,Miraloma Park,6,SingleFamily,1955,974552,"1,250,700",94127,15137033
833,Address: 344 Moncada Way, San FranciscoSales price: 1415000Sales date: 12/16/2015Bedrooms: 0Square feet: 1778Lot size: 5510,344 Moncada Way,1,2,1778,12/16/2015,1415000,37.729763,-122.469902,Ingleside Terrace,6,SingleFamily,1925,1191747,"1,624,900",94127,15186967
834,Address: 15 Santa Clara Avenue, San FranciscoSales price: 2000000Sales date: 12/16/2015Bedrooms: 5Square feet: 2146Lot size: 5436,15 Santa Clara Ave,2,5,2515,12/16/2015,2000000,37.739074,-122.465767,St. Francis Wood,7,SingleFamily,1921,2167947,"3,056,100",94127,15135625
835,Address: 2576 Diamond Street, San FranciscoSales price: 1265000Sales date: 12/16/2015Bedrooms: 2Square feet: 878Lot size: 2500,2576 Diamond St,2,2,878,12/16/2015,1265000,37.737683,-122.43496,Glen Park,5,SingleFamily,1906,1368609,"1,660,200",94131,15184575
836,Address: 163 Monterey Boulevard, San FranciscoSales price: 1281000Sales date: 12/16/2015Bedrooms: 0Square feet: 1075Lot size: 2809,163 Monterey Blvd,2,3,1476,12/16/2015,1281000,37.731291,-122.438902,Sunnyside,5,SingleFamily,1939,1207825,"1,038,200",94131,15186139
837,Address: 455 Vallejo Street #111, San FranciscoSales price: 875000Sales date: 12/16/2015Bedrooms: 0Square feet: 825Lot size: 20344,455 Vallejo St APT 111,1,1,825,12/16/2015,875000,37.798796,-122.404766,Telegraph Hill,3,Condominium,1973,877891,"1,238,700",94133,15066608
843,Address: 333 1st Street #2103, San FranciscoSales price: 1029000Sales date: 12/15/2015Bedrooms: 1Square feet: 713Lot size: 38571,333 1st St PH 2103,1,1,713,12/15/2015,1029000,37.787029,-122.393638,South Beach,3,Condominium,2004,941770,"1,286,900",94105,64972578
846,Address: 260 King Street #421, San FranciscoSales price: 731000Sales date: 12/15/2015Bedrooms: 1Square feet: 695Lot size: 213232,260 King St UNIT 421,1,1,695,12/15/2015,731000,37.777641,-122.393417,South of Market,3,Condominium,2004,740291,"975,700",94107,69819708
849,Address: 1177 California Street #501, San FranciscoSales price: 900000Sales date: 12/15/2015Bedrooms: 0Square feet: 884Lot size: 31662,1177 California St APT 501,1,1,884,12/15/2015,900000,37.791089,-122.413658,Downtown,3,Condominium,1978,953442,"807,800",94108,15068551
850,Address: 1896 Pacific Avenue #802, San FranciscoSales price: 250000Sales date: 12/15/2015Bedrooms: 0Square feet: 1953Lot size: 8537,1896 Pacific Ave APT 802,2.5,2,2272,12/17/2014,2735000,37.794706,-122.426347,Pacific Heights,6,Condominium,1924,2400315,"1,910,700",94109,15072997
851,Address: 1250 Jones Street #802, San FranciscoSales price: 1680000Sales date: 12/15/2015Bedrooms: 0Square feet: 1115Lot size: 10278,1250 Jones St APT 802,1,1,1115,12/15/2015,1680000,37.793071,-122.414049,Nob Hill,5,Condominium,1929,1513279,"1,459,200",94109,15067896
852,Address: 1807 Jones Street, San FranciscoSales price: 1700000Sales date: 12/15/2015Bedrooms: 0Square feet: 1467Lot size: 3025,1807 Jones St,2,2,1467,12/15/2015,1700000,37.79792,-122.415745,Russian Hill,5,Condominium,1922,1670920,"1,630,000",94109,15066281
854,Address: 1248 Utah Street, San FranciscoSales price: 2500000Sales date: 12/15/2015Bedrooms: 3Square feet: 2509Lot size: 2247,1248 Utah St,4,4,2770,12/15/2015,2500000,37.753647,-122.405683,Mission,8,SingleFamily,1915,2323469,"1,185,400",94110,15151938
855,Address: 2294 42nd Avenue, San FranciscoSales price: 1060000Sales date: 12/15/2015Bedrooms: 3Square feet: 1498Lot size: 2060,2294 42nd Ave,2,3,1650,12/15/2015,1060000,37.743988,-122.500211,Outer Parkside,7,SingleFamily,1946,1126530,"981,900",94116,15118743
856,Address: 2771 38th Avenue, San FranciscoSales price: 1175000Sales date: 12/15/2015Bedrooms: 2Square feet: 1011Lot size: 3000,2771 38th Ave,2,3,1655,12/15/2015,1175000,37.735233,-122.495898,Outer Parkside,7,SingleFamily,1948,1156510,"981,900",94116,15125969
858,Address: 544 Waller Street #1, San FranciscoSales price: 1900000Sales date: 12/15/2015Bedrooms: 2Square feet: 860Lot size: 3315,544 Waller St # 1,3,3,1312,12/15/2015,1900000,37.771145,-122.43275,Hayes Valley,5,Condominium,1983,967555,"1,224,800",94117,15079164
861,Address: 699 36th Avenue #408, San FranciscoSales price: 925000Sales date: 12/15/2015Bedrooms: 3Square feet: 1639Lot size: 9735,699 36th Ave APT 408,3,3,1639,12/15/2015,925000,37.775999,-122.49655,Outer Richmond,7,SingleFamily,1997,982950,"1,214,000",94121,15095966
864,Address: 16 Miraloma Drive, San FranciscoSales price: 2700000Sales date: 12/15/2015Bedrooms: 3Square feet: 3163Lot size: 10558,16 Miraloma Dr,4,6,4883,12/15/2015,2700000,37.739831,-122.460533,St. Francis Wood,11,SingleFamily,1928,4745269,"3,056,100",94127,15136743
865,Address: 155 Arbor Street, San FranciscoSales price: 1080000Sales date: 12/15/2015Bedrooms: 0Square feet: 1550Lot size: 2400,155 Arbor St,1,3,1550,12/15/2015,1080000,37.736967,-122.437193,Glen Park,6,SingleFamily,1937,1174789,"1,660,200",94131,15200513
867,Address: 2212 Castro Street, San FranciscoSales price: 3595000Sales date: 12/15/2015Bedrooms: 3Square feet: 3914Lot size: 2625,2212 Castro St,4,4,4017,12/15/2015,3595000,37.743817,-122.433688,Noe Valley,10,SingleFamily,2007,3622440,"1,782,000",94131,15200088
869,Address: 1821 Grant Avenue #101, San FranciscoSales price: 835000Sales date: 12/15/2015Bedrooms: 0Square feet: 1048Lot size: 4240,1821 Grant Ave APT 101,1,1,1048,12/15/2015,835000,37.803748,-122.408531,Telegraph Hill,2,Condominium,1975,900868,"1,238,700",94133,15064391
870,Address: 1132 Goettingen Street, San FranciscoSales price: 850000Sales date: 12/15/2015Bedrooms: 4Square feet: 1586Lot size: 1833,1132 Goettingen St,2.5,4,1586,12/15/2015,850000,37.717968,-122.403125,Visitacion Valley,6,SingleFamily,1947,761085,"707,100",94134,15172839
878,Address: 130 Langton Street #A, San FranciscoSales price: 750000Sales date: 12/14/2015Bedrooms: 2Square feet: 1000Lot size: 1990,130A Langton St # A,1.5,2,1000,12/14/2015,750000,37.77576,-122.40796,South of Market,3,Condominium,1906,801338,"975,700",94103,15147987
880,Address: 760 Treat Avenue #1, San FranciscoSales price: 1530000Sales date: 12/14/2015Bedrooms: 2Square feet: 1275Lot size: 3065,760 Treat Ave # 1,2,3,1275,12/14/2015,1530000,37.75797,-122.413821,Mission,5,Condominium,1900,1411622,"1,185,400",94110,69820035
